Plant Code,Plant Name,State,Latitude,Longitude,Energy Source,Nameplate Capacity (MW)
1,Sand Point,AK,55.339722,-160.497222,WND,0.5
2,Bankhead Dam,AL,33.458665,-87.356823,WAT,53.9
4,Walter Bouldin Dam,AL,32.583889,-86.283056,WAT,75.0
11,H Neely Henry Dam,AL,33.7845,-86.0524,WAT,24.3
12,Holt Dam,AL,33.2553,-87.4495,WAT,46.9
13,Jordan Dam,AL,32.6189,-86.2548,WAT,25.0
14,Logan Martin Dam,AL,33.425878,-86.337547,WAT,42.7
15,Lay Dam,AL,32.9633,-86.5187,WAT,29.5
16,Martin Dam,AL,32.680394,-85.911442,WAT,50.2
17,Mitchell Dam,AL,32.806025,-86.444892,WAT,20.0
18,Lewis Smith Dam,AL,33.9406,-87.1077,WAT,90.5
19,Thurlow Dam,AL,32.535436,-85.887614,WAT,40.5
20,Weiss Dam,AL,34.172142,-85.753806,WAT,29.2
21,Yates Dam,AL,32.5743,-85.8901,WAT,25.5
34,Rollins,CA,39.134259,-120.953341,WAT,12.1
38,Millers Ferry,AL,32.100881,-87.399767,WAT,33.7
48,Guntersville,AL,34.421272,-86.393931,WAT,28.8
49,Wheeler Dam,AL,34.8069,-87.3819,WAT,35.1
53,Gantt,AL,31.4033,-86.479469,WAT,1.2
55,Point A,AL,31.361146,-86.518307,WAT,1.6
62,Annex Creek,AK,58.3176,-134.101,WAT,1.8
63,Gold Creek,AK,58.3107,-134.4174,WAT,0.8
65,Salmon Creek 1,AK,58.3269,-134.4631,WAT,8.5
66,Skagway,AK,59.4545,-135.3131,WAT,0.4
70,Swan Lake,AK,55.615208,-131.356111,WAT,11.3
71,Terror Lake Microgrid,AK,57.6861,-152.895,WAT,11.2
72,Venice Hydro,CA,34.01135,-118.4168,WAT,10.1
77,Eklutna Hydro Project,AK,61.475211,-149.15009,WAT,22.2
78,Snettisham,AK,58.1415,-133.737,WAT,23.6
84,Ketchikan,AK,55.344641,-131.633425,WAT,1.4
88,Ashokan,NY,41.949,-74.2063,WAT,2.3
90,Snake River,AK,64.505331,-165.429814,WND,0.9
91,Petersburg,AK,56.81104,-132.957091,WAT,1.8
93,Blue Lake Hydro,AK,57.0516,-135.2297,WAT,5.3
100,South Consolidated,AZ,33.466477,-111.781064,WAT,1.4
104,J S Eastwood,CA,37.147926,-119.2567,WAT,199.8
141,Agua Fria,AZ,33.5561,-112.2153,SUN,0.2
143,Crosscut,AZ,33.439375,-111.946052,WAT,3.0
145,Horse Mesa,AZ,33.5907,-111.344,WAT,9.9
148,Mormon Flat,AZ,33.5536,-111.4431,WAT,9.2
149,Roosevelt,AZ,33.671104,-111.161786,WAT,36.0
150,Stewart Mountain,AZ,33.5661,-111.536,WAT,13.0
152,Davis Dam,AZ,35.197044,-114.570669,WAT,51.7
153,Glen Canyon Dam,AZ,36.936614,-111.483872,WAT,165.0
154,Hoover Dam (NV),NV,36.01551,-114.738006,WAT,2.4
159,Lake Creek Dam,UT,40.493631,-111.312506,WAT,1.5
161,Turlock Lake,CA,37.611461,-120.594678,WAT,1.1
162,Hickman,CA,37.621536,-120.746247,WAT,0.5
166,Carpenter,AR,34.4425,-93.0262,WAT,28.0
174,Remmel,AR,34.4272,-92.8941,WAT,3.0
180,Volta 2,CA,40.45193,-121.86215,WAT,1.0
182,Beaver Dam (AR),AR,36.421507,-93.847373,WAT,56.0
187,Degray,AR,34.211913,-93.110963,WAT,40.0
188,Greers Ferry Lake,AR,35.5207,-91.9953,WAT,48.0
195,Narrows (AR),AR,34.148427,-93.715168,WAT,8.5
196,Norfork,AR,36.2491,-92.2401,WAT,40.2
197,Blakely Mountain,AR,34.570984,-93.194425,WAT,37.5
198,Bull Shoals,AR,36.3635,-92.5763,WAT,40.0
199,Dardanelle,AR,35.2503,-93.1686,WAT,40.2
214,Alta Powerhouse,CA,39.215979,-120.80355,WAT,1.0
215,Angels,CA,38.071944,-120.539444,WAT,1.4
217,Balch 1,CA,36.909137,-119.087712,WAT,31.0
218,Balch 2,CA,36.908907,-119.087556,WAT,48.6
219,Belden,CA,40.007445,-121.249438,WAT,117.9
220,Bucks Creek,CA,39.91062,-121.327692,WAT,33.0
221,Butt Valley,CA,40.175656,-121.190663,WAT,40.0
222,Caribou 1,CA,40.085476,-121.148241,WAT,23.8
223,Caribou 2,CA,40.085997,-121.149373,WAT,60.3
224,Centerville PH,CA,39.788877,-121.657383,WAT,5.5
225,Chili Bar,CA,38.771764,-120.813239,WAT,8.3
227,Coleman PH,CA,40.404645,-122.121904,WAT,12.1
231,Cresta,CA,39.825907,-121.409687,WAT,36.9
232,De Sabla,CA,39.869265,-121.631819,WAT,18.4
233,Deer Creek PH,CA,39.29807,-120.8443,WAT,5.5
235,Drum 1,CA,39.256873,-120.767437,WAT,12.0
236,Drum 2,CA,39.257388,-120.767046,WAT,53.1
237,Dutch Flat,CA,39.216985,-120.835587,WAT,22.0
238,El Dorado,CA,38.793574,-120.619152,WAT,10.0
239,Electra,CA,38.330985,-120.669901,WAT,32.3
240,Haas,CA,36.927424,-119.02025,WAT,67.5
241,Halsey,CA,38.956985,-121.041932,WAT,13.6
242,Hamilton Branch,CA,40.268712,-121.089479,WAT,2.6
243,Hat Creek 1,CA,40.929297,-121.544462,WAT,10.0
244,Hat Creek 2,CA,40.960675,-121.548657,WAT,10.0
248,Inskip,CA,40.400988,-121.965502,WAT,7.6
249,James B Black,CA,40.992295,-121.975182,WAT,85.1
250,Kerckhoff,CA,37.092486,-119.552826,WAT,11.3
254,Kings River PH,CA,36.888166,-119.158777,WAT,48.6
258,Merced Falls,CA,37.52301,-120.329905,WAT,3.4
261,Murphys,CA,38.147093,-120.446396,WAT,3.6
262,Narrows PH,CA,39.2364,-121.271741,WAT,10.2
264,Phoenix,CA,38.032103,-120.326537,WAT,1.6
265,Pit 1,CA,40.99084,-121.498243,WAT,34.6
266,Pit 3,CA,40.997448,-121.748139,WAT,26.7
267,Pit 4,CA,40.986361,-121.84944,WAT,51.7
268,Pit 5,CA,40.986197,-121.977594,WAT,38.2
269,Pit 6,CA,40.922568,-121.992906,WAT,39.6
270,Pit 7,CA,40.847462,-121.990798,WAT,57.6
272,Poe,CA,39.722892,-121.469814,WAT,71.4
274,Potter Valley,CA,39.361786,-123.127934,WAT,4.4
275,Rock Creek,CA,39.90521,-121.345226,WAT,63.0
276,San Joaquin 2,CA,37.203233,-119.497508,WAT,2.8
277,San Joaquin 3,CA,37.253718,-119.519352,WAT,4.0
279,Salt Springs,CA,38.497914,-120.21811,WAT,12.3
280,South,CA,40.395396,-121.879186,WAT,6.7
281,Spaulding 1,CA,39.324613,-120.644807,WAT,7.0
282,Spaulding 2,CA,39.324592,-120.645375,WAT,3.7
283,Spaulding 3,CA,39.337679,-120.635467,WAT,6.6
284,Spring Gap,CA,38.18653,-120.11168,WAT,6.0
285,Stanislaus,CA,38.139048,-120.370325,WAT,81.9
287,Tiger Creek,CA,38.449291,-120.492645,WAT,25.5
289,Tule River,CA,36.163076,-118.707104,WAT,4.2
290,Volta 1,CA,40.459111,-121.86708,WAT,8.5
291,West Point PH,CA,38.420898,-120.549572,WAT,13.6
292,Wise,CA,38.889862,-121.098525,WAT,13.6
293,A G Wishon,CA,37.15105,-119.504724,WAT,3.2
296,Fall Creek,CA,41.985605,-122.360455,WAT,0.5
313,Green Lake,AK,56.986284,-135.12275,WAT,9.3
314,Drop 5 (CA),CA,32.673097,-115.392026,WAT,2.0
316,Sepulveda Canyon,CA,34.0969,-118.4795,WAT,8.5
317,Big Creek 1,CA,37.2042,-119.2396,WAT,19.8
318,Big Creek 2,CA,37.2,-119.3069,WAT,15.8
319,Big Creek 3,CA,37.148517,-119.386623,WAT,34.0
320,Big Creek 4,CA,37.139,-119.4898,WAT,50.0
321,Big Creek 8,CA,37.2096,-119.3289,WAT,30.0
322,Big Creek 2A,CA,37.200062,-119.30681,WAT,55.0
323,Bishop Creek 2,CA,37.273581,-118.573339,WAT,2.5
324,Bishop Creek 3,CA,37.301962,-118.531957,WAT,2.8
325,Bishop Creek 4,CA,37.323035,-118.501714,WAT,1.0
326,Bishop Creek 5,CA,37.3344,-118.4797,WAT,2.0
327,Bishop Creek 6,CA,37.3499,-118.4628,WAT,1.6
332,Fontana,CA,34.155162,-117.397119,WAT,1.5
336,Kaweah 2,CA,36.461326,-118.87988,WAT,1.8
337,Kaweah 1,CA,36.465066,-118.862023,WAT,2.3
338,Kaweah 3,CA,36.486059,-118.835645,WAT,2.4
339,Kern River 3,CA,35.776185,-118.436233,WAT,20.5
340,Kern River 1,CA,35.460303,-118.77959,WAT,6.6
342,Lundy,CA,38.042729,-119.172015,WAT,1.5
344,Mammoth Pool,CA,37.220302,-119.337983,WAT,95.0
353,Poole,CA,37.944237,-119.2161,WAT,11.3
354,Portal,CA,37.257045,-119.158936,WAT,10.8
357,Rush Creek,CA,37.766954,-119.123284,WAT,5.9
361,Santa Ana 1,CA,34.14522,-117.058481,WAT,0.8
363,Santa Ana 3,CA,34.107245,-117.099091,WAT,3.1
365,Lower Tule River,CA,36.13568,-118.788868,WAT,1.3
376,Pardee,CA,38.2569,-120.8507,WAT,7.5
378,Prairie River,MN,47.287206,-93.498266,WAT,0.7
380,Dion R Holm,CA,37.896649,-119.9675,WAT,90.1
381,Moccasin,CA,37.809388,-120.299254,WAT,45.0
382,R C Kirkwood,CA,37.877667,-119.953233,WAT,45.4
385,Drop 2 (CA),CA,32.705435,-115.030975,WAT,5.0
386,Drop 3 (CA),CA,32.705428,-115.126103,WAT,4.8
387,Drop 4,CA,32.705341,-115.219067,WAT,10.0
388,Pilot Knob,CA,32.736642,-114.713858,WAT,16.5
390,Solomon Gulch,AK,61.0828,-146.3033,WAT,6.0
391,Big Pine Creek,CA,37.142795,-118.324075,WAT,3.2
392,Castaic,CA,34.587237,-118.656638,WAT,271.0
393,Control Gorge,CA,37.437921,-118.556988,WAT,37.5
394,Cottonwood,CA,36.443421,-118.04389,WAT,0.8
396,Foothill,CA,34.318248,-118.494449,WAT,8.8
397,Franklin (CA),CA,34.103931,-118.413377,WAT,2.0
398,Haiwee,CA,36.109722,-117.956667,WAT,2.8
401,Middle Gorge,CA,37.51,-118.569167,WAT,37.5
402,Pleasant Valley Hydro,CA,37.41416,-118.523889,WAT,3.2
403,San Fernando,CA,34.312778,-118.492778,WAT,2.8
407,Upper Gorge,CA,37.546036,-118.590001,WAT,37.5
409,Exchequer,CA,37.584345,-120.26859,WAT,94.5
410,McSwain,CA,37.522065,-120.31009,WAT,9.0
412,Chicago Park,CA,39.177903,-120.890856,WAT,44.0
413,Dutch Flat 2,CA,39.2184,-120.8352,WAT,27.3
414,Beardsley,CA,38.202569,-120.076983,WAT,10.0
415,Donnells,CA,38.246656,-120.034072,WAT,72.0
416,Tulloch,CA,37.876111,-120.605,WAT,11.7
417,Forbestown,CA,39.551012,-121.278784,WAT,41.9
418,Kelly Ridge,CA,39.531784,-121.491247,WAT,10.0
419,Woodleaf,CA,39.553811,-121.204077,WAT,67.2
424,French Meadows,CA,39.077971,-120.406069,WAT,15.3
425,Middle Fork,CA,39.024801,-120.596383,WAT,61.2
426,Oxbow (CA),CA,39.003372,-120.746651,WAT,6.1
427,Ralston,CA,39.000999,-120.725053,WAT,79.2
428,Parker,CA,37.477838,-120.444492,WAT,2.7
430,Camino,CA,38.82881,-120.537089,WAT,78.9
431,Jaybird,CA,38.83405,-120.53176,WAT,80.8
432,Loon Lake,CA,38.982697,-120.324503,WAT,74.1
433,Robbs Peak,CA,38.896511,-120.378292,WAT,25.5
435,White Rock/Slab Creek,CA,38.765336,-120.787366,WAT,133.0
436,Devil Canyon,CA,34.2056,-117.3344,WAT,59.8
437,Edward C Hyatt,CA,39.542985,-121.492188,WAT,117.0
438,Thermalito,CA,39.514893,-121.630077,WAT,32.6
439,Don Pedro,CA,37.695994,-120.420152,WAT,45.5
440,La Grange,CA,37.6697,-120.4436,WAT,1.2
441,Folsom,CA,38.70675,-121.158443,WAT,66.2
442,Judge F Carr,CA,40.646934,-122.626973,WAT,77.2
443,Keswick,CA,40.611858,-122.446441,WAT,39.0
444,Nimbus,CA,38.63735,-121.220198,WAT,6.7
445,Shasta,CA,40.717455,-122.422274,WAT,142.0
446,ONeill,CA,37.098671,-121.047718,WAT,4.2
447,Parker Dam,CA,34.295334,-114.140222,WAT,30.0
448,W R Gianelli,CA,37.0692,-121.0772,WAT,53.0
450,Spring Creek,CA,40.628115,-122.467509,WAT,90.0
451,Trinity,CA,40.797296,-122.762553,WAT,70.0
454,Colgate,CA,39.330833,-121.191666,WAT,157.5
455,Narrows 2,CA,39.238996,-121.270409,WAT,46.7
457,Bear Valley,CA,33.166246,-117.016566,WAT,0.7
466,Boulder Canyon Hydro,CO,40.004725,-105.332495,WAT,5.0
467,Cabin Creek,CO,39.6551,-105.7088,WAT,150.0
472,Georgetown Hydro,CO,39.6919,-105.6978,WAT,0.6
474,Salida,CO,38.53419,-106.182003,WAT,0.6
476,Shoshone (CO),CO,39.57013,-107.226876,WAT,7.2
479,Temescal,CA,33.8343,-117.4971,WAT,2.9
480,Corona,CA,33.85895,-117.6106,WAT,2.9
481,Perris,CA,33.8361,-117.1831,WAT,7.9
482,Rio Hondo,CA,34.004722,-118.09917,WAT,1.9
483,Coyote Creek,CA,33.92493,-117.95517,WAT,3.1
484,Red Mountain,CA,33.3944,-117.1889,WAT,5.9
487,Valley View,CA,33.9001,-117.82905,WAT,4.1
489,Upper Dawson,CA,37.6508,-120.4706,WAT,4.4
494,Manitou Springs,CO,38.855556,-104.933056,WAT,2.5
495,Ruxton Park,CO,38.841354,-104.973802,WAT,1.0
505,Boysen,WY,43.417872,-108.177545,WAT,7.5
508,Lamar Plant,CO,38.033327,-102.537915,WND,4.5
512,Blue Mesa,CO,38.453191,-107.337483,WAT,43.2
513,Estes,CO,40.376771,-105.509665,WAT,15.0
514,Morrow Point,CO,38.451753,-107.539299,WAT,86.6
515,Big Thompson,CO,40.421031,-105.223804,WAT,4.5
516,Green Mountain,CO,39.878805,-106.332725,WAT,13.0
517,Marys Lake,CO,40.34408,-105.534308,WAT,8.1
518,Flatiron,CO,40.364996,-105.236032,WAT,43.0
519,Pole Hill,CO,40.365056,-105.325074,WAT,38.2
520,Lower Molina,CO,39.19366,-108.044088,WAT,5.6
521,Upper Molina,CO,39.143808,-108.004777,WAT,9.9
531,Sacramento Municipal Util Dist,CA,39.048802,-121.316966,WAT,7.2
534,Jones Fork,CA,38.850283,-120.381883,WAT,10.0
537,Camanche,CA,38.2268,-121.0245,WAT,3.6
539,Rocky River (CT),CT,41.5826,-73.4349,WAT,3.5
541,Bulls Bridge,CT,41.659046,-73.491984,WAT,1.2
547,Northfield Mountain,MA,42.610683,-72.471643,WAT,292.0
551,Scotland Dam,CT,41.6651,-72.1221,WAT,2.0
552,Shepaug,CT,41.44842,-73.295321,WAT,37.2
553,Stevenson,CT,41.3833,-73.1714,WAT,7.5
554,Taftville,CT,41.5725,-72.0458,WAT,0.4
557,Tunnel,CT,41.555425,-72.041829,WAT,1.0
559,Rainbow (CT),CT,41.915312,-72.693616,WAT,4.0
560,Falls Village,CT,41.957272,-73.369297,WAT,3.0
579,High Falls,NY,41.828814,-74.131877,WAT,3.2
583,Tenth Street,CT,41.538955,-72.050936,WAT,1.4
584,Navajo Dam,NM,36.8061,-107.6131,WAT,15.0
585,Drop 1,CA,32.711611,-114.942666,WAT,1.9
586,East Highline,CA,32.699451,-115.28245,WAT,2.4
622,South Fork Tolt,WA,47.699167,-121.783333,WAT,16.8
625,Upper Mechanicville,NY,42.9126,-73.6805,WAT,8.2
626,Oak Flat,CA,40.07531,-121.16143,WAT,1.4
632,Newcastle,CA,38.835182,-121.092982,WAT,12.7
645,Big Bend,FL,27.7944,-82.4036,SUN,19.8
674,Pilot Butte,WY,43.219017,-108.787681,WAT,0.8
678,W K Sanders,VT,44.625282,-72.530859,WAT,0.9
682,Kerckhoff 2,CA,37.071846,-119.558008,WAT,139.5
690,J Woodruff,FL,30.708571,-84.863869,WAT,14.5
702,Bartletts Ferry,AL,32.663,-85.0908,WAT,15.0
704,Burton Dam,GA,34.7939,-83.5402,WAT,3.0
706,Flint River,GA,31.6026,-84.137,WAT,1.8
707,Goat Rock,AL,32.6096,-85.0795,WAT,5.0
712,Lloyd Shoals,GA,33.3207,-83.8414,WAT,2.4
714,Toadtown,CA,39.893491,-121.59338,WAT,1.8
717,Morgan Falls,GA,33.9681,-84.3841,WAT,2.4
718,Nacoochee,GA,34.7549,-83.5012,WAT,2.4
719,North Highlands,GA,32.4994,-84.9965,WAT,9.2
720,Oliver Dam,GA,32.5155,-85.0004,WAT,18.0
722,Sinclair Dam,GA,33.1405,-83.2018,WAT,22.5
723,Tallulah Falls,GA,34.7388,-83.3956,WAT,12.0
724,Terrora,GA,34.7653,-83.4162,WAT,8.0
725,Tugalo,GA,34.714,-83.3522,WAT,11.2
729,Yonah,GA,34.6821,-83.3418,WAT,7.5
736,Stevens Creek,GA,33.562644,-82.051242,WAT,2.2
745,Etiwanda,CA,34.10345,-117.5257,WAT,23.9
751,Moccasin Low Head Hydro Project,CA,37.816447,-120.312033,WAT,2.9
752,Lake Blackshear Project,GA,31.847697,-83.941996,WAT,2.4
754,Hartwell Lake,GA,34.3564,-82.8219,WAT,85.0
757,Blue Ridge,GA,34.883889,-84.282222,WAT,22.0
758,Nottely,GA,34.959153,-84.08765,WAT,15.0
759,Buford,GA,34.162279,-84.077367,WAT,62.0
760,Allatoona,GA,34.1637,-84.7282,WAT,42.3
761,Walter F George,GA,31.624501,-85.065237,WAT,42.0
771,Puueo,HI,19.7264,-155.0908,WAT,0.7
774,Waiau Hydro,HI,19.7203,-155.1189,WAT,0.7
776,Sly Creek,CA,39.580413,-121.119479,WAT,12.1
785,Kingsley,NE,41.2114,-101.6681,WAT,50.0
788,East Barnet,VT,44.326335,-72.035894,WAT,2.2
790,Gem State,ID,43.420221,-112.101852,WAT,23.4
791,Canyon,TX,29.87056,-98.194733,WAT,3.0
794,Lewisville,TX,33.068473,-96.963806,WAT,2.8
805,Charles E Monty,ME,44.099461,-70.220851,WAT,14.2
808,Jarvis (Hinckley),NY,43.3121,-75.109,WAT,4.5
809,American Falls,ID,42.7778,-112.8764,WAT,30.8
810,Bliss (ID),ID,42.913786,-115.070986,WAT,25.0
811,Brownlee,ID,44.8367,-116.8975,WAT,112.5
812,C J Strike,ID,42.944869,-115.977858,WAT,27.6
813,Cascade Dam (ID),ID,44.5256,-116.0483,WAT,6.2
814,Clear Lake,ID,42.66701,-114.78012,WAT,2.5
815,Lower Malad,ID,42.865783,-114.906172,WAT,13.5
816,Lower Salmon,ID,42.841608,-114.903611,WAT,15.0
818,Shoshone Falls,ID,42.5975,-114.4033,WAT,11.5
819,Swan Falls,ID,43.2435,-116.3791,WAT,13.6
820,Thousand Springs,ID,42.740542,-114.836722,WAT,6.8
821,Twin Falls (ID),ID,42.5892,-114.3553,WAT,8.4
822,Upper Salmon A,ID,42.767422,-114.924692,WAT,9.0
823,Upper Malad,ID,42.864267,-114.885542,WAT,8.3
825,Ashton,ID,44.07863,-111.497326,WAT,2.7
827,Grace,ID,42.53675,-111.793967,WAT,11.0
829,Oneida,ID,42.267774,-111.748531,WAT,10.0
831,Soda,ID,42.64455,-111.696689,WAT,7.6
833,Cabinet Gorge,ID,48.084444,-116.053056,WAT,59.4
835,Post Falls,ID,47.703333,-116.953889,WAT,2.2
839,Scott Flat,CA,39.272108,-120.932508,WAT,1.0
840,Dworshak,ID,46.5143,-116.2977,WAT,103.0
841,City Power Plant,ID,43.491398,-112.04541,WAT,8.0
843,Lower No 2,ID,43.468398,-112.062602,WAT,3.0
844,Upper Power Plant,ID,43.552695,-112.050953,WAT,8.0
846,Combie South,CA,39.0096,-121.0591,WAT,0.5
850,Palisades Dam,ID,43.334849,-111.205752,WAT,44.1
851,Albeni Falls,ID,48.180245,-116.99859,WAT,14.0
899,Moline,IL,41.509959,-90.534021,WAT,0.9
903,Rockton,IL,42.4511,-89.0756,WAT,0.6
905,Alamo,CA,34.8158,-118.6867,WAT,19.6
917,Quincy Chute,WA,46.982514,-119.257764,WAT,9.4
925,Hydro Plant No 3,UT,39.205623,-111.334381,WAT,0.7
944,Geneseo,IL,41.451494,-90.148547,WND,1.5
960,North Ninth Street,IL,41.9093,-89.0498,SUN,0.3
986,Elkhart,IN,41.6928,-85.965,WAT,1.4
987,Last Chance,ID,42.603349,-111.705304,WAT,0.2
989,Twin Branch,IN,41.665,-86.1322,WAT,0.6
998,Norway (IN),IN,40.7803,-86.76,WAT,2.0
999,Oakdale,IN,40.6564,-86.7528,WAT,4.3
1005,Markland,IN,38.7795,-84.964,WAT,25.9
1016,Butler-Warner Generation Plant,NC,35.0986,-78.8294,SUN,1.0
1020,Manti Lower,UT,39.255911,-111.621491,WAT,0.6
1067,Iowa Hydro LLC,IA,42.069987,-90.697657,WAT,0.6
1109,Keokuk,IA,40.3965,-91.3719,WAT,7.6
1172,Osage (IA),IA,43.279722,-92.810556,SUN,0.8
1173,Ottumwa City of,IA,41.016346,-92.414873,WAT,1.0
1354,Dix Dam,KY,37.7864,-84.7028,WAT,9.4
1355,E W Brown,KY,37.78831,-84.71257,SUN,13.0
1359,Mother Ann Lee,KY,37.8297,-84.7247,WAT,0.7
1365,Ohio Falls,KY,38.2832,-85.7792,WAT,13.7
1371,Barkley,KY,37.0217,-88.2211,WAT,32.5
1377,Kentucky Dam,KY,37.0131,-88.2692,WAT,44.6
1380,Wolf Creek,KY,36.8691,-85.147,WAT,45.0
1469,Ellsworth Hydro Station,ME,44.5442,-68.4306,WAT,2.5
1475,Milford Hydro Station,ME,44.942064,-68.64504,WAT,0.7
1478,Stillwater Hydro Station,ME,44.9094,-68.6833,WAT,0.4
1482,Bonny Eagle,ME,43.687688,-70.611553,WAT,1.2
1483,Brunswick Hydro,ME,43.920486,-69.967819,WAT,12.6
1486,Cataract Hydro,ME,43.4956,-70.4472,WAT,6.6
1488,Deer Rips,ME,44.134572,-70.203715,WAT,0.6
1491,Gulf Island,ME,44.152854,-70.209378,WAT,6.4
1492,Harris Hydro,ME,45.4592,-69.8658,WAT,15.0
1493,Hiram,ME,43.8525,-70.7969,WAT,2.4
1497,Messalonskee 2 (Oakland),ME,44.548544,-69.710404,WAT,2.8
1498,Messalonskee 3,ME,44.569872,-69.681841,WAT,1.6
1500,Messalonskee 5,ME,44.534397,-69.652232,WAT,1.8
1501,North Gorham,ME,43.802517,-70.44992,WAT,1.1
1504,Shawmut,ME,44.629517,-69.583527,WAT,0.7
1505,Skelton,ME,43.5708,-70.5583,WAT,8.4
1508,West Buxton,ME,43.66687,-70.602125,WAT,0.6
1509,Weston Hydro,ME,44.763875,-69.71828,WAT,3.0
1510,Williams Hydro,ME,44.9589,-69.8703,WAT,7.0
1511,Wyman Hydro,ME,45.0703,-69.9064,WAT,24.0
1516,Squa Pan Hydro Station,ME,46.556477,-68.325538,WAT,1.5
1567,Deep Creek,MD,39.523,-79.413,WAT,10.0
1574,Conowingo,MD,39.6572,-76.1752,WAT,45.0
1603,Boatlock,MA,42.2086,-72.6014,WAT,0.7
1604,Chemical,MA,42.1919,-72.6097,WAT,0.8
1605,Hadley Falls,MA,42.2119,-72.6036,WAT,17.6
1607,Riverside Holyoke,MA,42.200592,-72.594432,WAT,0.8
1620,Deerfield 5,MA,42.69118,-72.9561,WAT,17.5
1629,Cabot,MA,42.5875,-72.5793,WAT,10.3
1630,Cobble Mountain,MA,42.117112,-72.864663,WAT,13.0
1634,Gardners Falls,MA,42.5914,-72.7308,WAT,0.4
1637,Putts Bridge,MA,42.157896,-72.48643,WAT,1.6
1638,Redbridge,MA,42.176047,-72.409521,WAT,1.8
1693,Alcona,MI,44.561961,-83.804505,WAT,4.0
1694,Allegan Dam,MI,42.563803,-85.953976,WAT,0.5
1698,C W Tippy,MI,44.259135,-85.939565,WAT,6.7
1700,Cooke,MI,44.472624,-83.571947,WAT,3.0
1701,Croton,MI,43.437322,-85.664462,WAT,3.0
1704,Five Channels,MI,44.455518,-83.676274,WAT,3.0
1705,Foote,MI,44.435381,-83.440722,WAT,3.0
1707,Hardy,MI,43.486618,-85.629866,WAT,10.0
1708,Hodenpyl,MI,44.36286,-85.819968,WAT,8.5
1712,Loud,MI,44.4631,-83.7208,WAT,2.0
1713,Ludington,MI,43.8942,-86.4447,WAT,329.8
1714,Mio,MI,44.661114,-84.131691,WAT,2.5
1716,Rogers,MI,43.613001,-85.479469,WAT,1.7
1722,Webber,MI,42.9528,-84.9025,WAT,3.3
1751,Edison Sault,MI,46.4974,-84.332,WAT,0.6
1753,Berrien Springs,MI,41.9439,-86.3289,WAT,0.6
1754,Buchanan (MI),MI,41.839566,-86.35105,WAT,0.4
1756,Saxon Falls,WI,46.5392,-90.3742,WAT,0.8
1757,Superior Falls,MI,46.564601,-90.416147,WAT,0.7
1760,Constantine,MI,41.8436,-85.6694,WAT,0.3
1761,Mottville,MI,41.8056,-85.7505,WAT,0.4
1773,Prickett,MI,46.7261,-88.6625,WAT,1.1
1774,Victoria Dam,MI,46.6964,-89.2089,WAT,6.0
1775,Brule,WI,45.9472,-88.2189,WAT,1.3
1776,Chalk Hill,MI,45.5136,-87.8011,WAT,2.6
1777,Hemlock Falls,MI,46.1311,-88.225,WAT,2.8
1778,Kingsford,MI,45.807956,-88.125121,WAT,2.4
1780,Michigamme Falls,MI,45.9553,-88.1958,WAT,4.8
1781,Peavy Falls,MI,45.990781,-88.210514,WAT,6.0
1785,Way Dam,MI,46.1592,-88.2353,WAT,1.8
1786,White Rapids,MI,45.482084,-87.802178,WAT,3.0
1787,Grand Rapids,MI,45.3547,-87.6494,WAT,1.1
1821,Crystal Falls,MI,46.106278,-88.334531,WAT,0.3
1842,James R Smith,MI,46.571639,-87.410455,WAT,1.6
1844,Marshall (MI),MI,42.2717,-84.9411,WAT,0.2
1848,Norway (MI),MI,45.74123,-87.86278,WAT,2.7
1852,St Louis,MI,43.4019,-84.6014,WAT,0.2
1856,Hydro Plant,MI,41.9711,-85.5381,WAT,0.4
1865,Saint Marys Falls,MI,46.50625,-84.349267,WAT,6.2
1871,Kleber,MI,45.391984,-84.333257,WAT,0.6
1892,Blanchard,MN,45.8614,-94.3592,WAT,6.0
1894,Fond Du Lac,MN,46.666768,-92.293897,WAT,12.0
1895,Knife Falls,MN,46.726627,-92.448619,WAT,0.8
1896,Little Falls (MN),MN,45.975013,-94.369094,WAT,0.8
1898,Pillager,MN,46.316033,-94.484944,WAT,0.8
1899,Scanlon,MN,46.709126,-92.421733,WAT,0.4
1900,Sylvan,MN,46.305,-94.3775,WAT,0.6
1901,Thomson,MN,46.655,-92.3333,WAT,13.0
1902,Winton,MN,47.9344,-91.7639,WAT,2.0
1911,Hennepin Island,MN,44.982359,-93.254163,WAT,2.8
1943,Hoot Lake,MN,46.290641,-96.043252,WAT,1.0
1977,Granite Falls,MN,44.811685,-95.53455,WAT,0.3
1987,Lanesboro,MN,43.720026,-91.977738,WAT,0.3
1998,Mountain Lake,MN,43.9405,-94.9434,WND,1.2
2007,Rochester Hydro,MN,44.212981,-92.480177,WAT,1.3
2009,Redwood Falls,MN,44.5431,-95.1178,WAT,0.5
2014,Thief River Falls,MN,48.114262,-96.179176,WAT,0.3
2022,Willmar,MN,45.121705,-95.053236,WND,2.0
2024,Worthington,MN,43.63349,-95.609234,WND,0.9
2099,Niangua,MO,37.9385,-92.847701,WAT,1.5
2106,Osage Dam,MO,38.2044,-92.6239,WAT,27.5
2108,Taum Sauk,MO,37.520833,-90.834722,WAT,204.0
2124,Stockton Hydro,MO,37.6936,-93.7691,WAT,52.0
2166,Table Rock,MO,36.597,-93.3086,WAT,50.0
2181,Black Eagle,MT,47.521331,-111.261442,WAT,9.0
2182,Cochrane,MT,47.5375,-111.194969,WAT,28.4
2185,Hauser,MT,46.765941,-111.887341,WAT,3.5
2186,Holter,MT,46.9915,-112.0047,WAT,15.0
2188,Selis Ksanka Qlispe,MT,47.6777,-114.2339,WAT,70.6
2191,Morony,MT,47.581737,-111.060898,WAT,31.5
2192,Mystic,MT,45.225741,-109.762489,WAT,6.0
2193,Rainbow (MT),MT,47.5344,-111.2045,WAT,59.0
2194,Ryan,MT,47.569939,-111.122546,WAT,9.2
2195,Thompson Falls,MT,47.593155,-115.358237,WAT,7.0
2199,Noxon Rapids,MT,47.96048,-115.73361,WAT,99.0
2203,Hungry Horse,MT,48.341521,-114.01443,WAT,107.0
2204,Yellowtail,MT,45.307406,-107.957515,WAT,71.9
2227,Jeffrey,NE,40.959405,-100.397905,WAT,10.8
2228,Johnson 1,NE,40.6936,-99.8178,WAT,10.8
2229,Johnson 2,NE,40.6839,-99.7447,WAT,22.5
2240,Lon Wright,NE,41.4281,-96.4623,SUN,1.3
2260,Columbus,NE,41.4639,-97.3283,WAT,15.2
2268,Kearney,NE,40.703511,-99.100753,WAT,1.5
2273,Monroe (NE),NE,41.4872,-97.6078,WAT,2.8
2274,North Platte,NE,41.0864,-100.7594,WAT,13.1
2303,Spalding,NE,41.68138,-98.36756,WAT,0.1
2349,Comerford,NH,44.325053,-72.000975,WAT,22.0
2351,S C Moore,NH,44.3356,-71.8742,WAT,47.7
2352,Vernon Dam,VT,42.77165,-72.5146,WAT,2.0
2353,Wilder,VT,43.667927,-72.303642,WAT,16.2
2354,Amoskeag,NH,43.00223,-71.47208,WAT,6.0
2355,Ayers Island,NH,43.597849,-71.717683,WAT,2.8
2356,Eastman Falls,NH,43.447219,-71.6579,WAT,1.8
2357,Garvins Falls,NH,43.165524,-71.509441,WAT,3.4
2358,Gorham,NH,44.408278,-71.195354,WAT,0.4
2359,Hooksett,NH,43.101699,-71.465662,WAT,1.6
2360,Jackman,NH,43.11055,-71.94889,WAT,3.2
2368,Smith (NH),NH,44.469463,-71.178062,WAT,15.0
2481,Dashville,NY,41.8217,-74.0497,WAT,2.4
2483,Neversink,NY,41.8194,-74.6358,WAT,25.0
2486,Sturgeon,NY,41.848191,-74.046678,WAT,4.8
2522,Cadyville,NY,44.695,-73.6219,WAT,1.2
2530,High Falls - Saranac NY,NY,44.6389,-73.7492,WAT,4.0
2532,Kent Falls,NY,44.7053,-73.5967,WAT,3.2
2540,Allens Falls,NY,44.660338,-74.860265,WAT,4.0
2543,Beardslee,NY,43.019113,-74.741349,WAT,10.0
2544,Belfort,NY,43.9275,-75.3331,WAT,0.4
2545,Bennetts Bridge,NY,43.5317,-75.9531,WAT,9.0
2546,Black River,NY,44.000122,-75.813151,WAT,2.0
2547,Blake,NY,44.506474,-74.753442,WAT,15.0
2548,Browns Falls,NY,44.211407,-75.059441,WAT,8.0
2550,Chasm,NY,44.7533,-74.2169,WAT,1.0
2551,Colton,NY,44.5839,-74.9583,WAT,10.0
2552,Deferiet,NY,44.0381,-75.6806,WAT,4.0
2555,Eagle,NY,43.909714,-75.200831,WAT,2.0
2556,Eel Weir,NY,44.638365,-75.49052,WAT,0.5
2557,Effley,NY,43.922831,-75.277923,WAT,0.4
2559,Elmer,NY,43.927536,-75.288322,WAT,1.0
2560,Ephratah,NY,43.0092,-74.5372,WAT,1.0
2561,East Norfolk,NY,44.7989,-74.9856,WAT,4.0
2562,Five Falls,NY,44.527491,-74.849177,WAT,24.0
2563,Flat Rock,NY,44.2217,-75.0742,WAT,2.0
2564,Franklin (NY),NY,44.4372,-73.9725,WAT,1.0
2566,Fulton Hydro,NY,43.32411,-76.418984,WAT,0.8
2568,Glenwood Hydro,NY,43.2358,-78.3906,WAT,0.5
2569,Granby,NY,43.323441,-76.420841,WAT,5.0
2571,Hannawa,NY,44.6192,-74.9733,WAT,3.6
2572,Herrings,NY,44.0217,-75.6511,WAT,1.8
2573,Heuvelton,NY,44.6172,-75.4042,WAT,0.5
2574,High Dam,NY,43.4436,-76.4961,WAT,2.8
2575,High Falls - Croghan NY,NY,43.9247,-75.3731,WAT,2.0
2576,Higley,NY,44.5306,-74.9331,WAT,1.5
2578,Hydraulic Race,NY,43.170948,-78.691551,WAT,3.0
2579,Inghams,NY,43.061017,-74.764347,WAT,3.0
2580,Johnsonville Dam,NY,42.920374,-73.508886,WAT,2.0
2581,Kamargo,NY,44.0117,-75.7967,WAT,2.0
2582,Lighthouse Hill,NY,43.524103,-75.970318,WAT,4.0
2583,Macomb,NY,44.877326,-74.306288,WAT,1.0
2586,Minetto,NY,43.4003,-76.4739,WAT,2.0
2588,Moshier,NY,43.8719,-75.1364,WAT,4.0
2590,Norfolk,NY,44.8053,-74.9975,WAT,5.0
2591,Norwood,NY,44.7439,-75.0042,WAT,2.0
2595,Oswego Falls East,NY,43.3161,-76.4153,WAT,2.0
2596,Oswego Falls West,NY,43.3156,-76.4172,WAT,1.0
2597,Parishville,NY,44.63,-74.8258,WAT,3.0
2598,Piercefield,NY,44.233419,-74.566217,WAT,1.5
2599,Prospect,NY,43.291861,-75.147734,WAT,19.0
2600,Rainbow Falls Hydro,NY,44.5178,-74.8228,WAT,25.0
2601,Raymondville,NY,44.835,-74.9803,WAT,2.0
2604,South Edwards,NY,44.2678,-75.1961,WAT,1.0
2605,School Street,NY,42.78498,-73.707983,WAT,7.2
2606,Schaghticoke,NY,42.8992,-73.5989,WAT,4.0
2607,Schuylerville,NY,43.096823,-73.582107,WAT,2.0
2608,Sewalls,NY,43.9775,-75.8942,WAT,1.0
2609,Sherman Island,NY,43.2797,-73.7094,WAT,7.0
2610,Soft Maple,NY,43.9206,-75.2433,WAT,8.0
2611,South Colton,NY,44.5133,-74.8831,WAT,21.0
2612,Spier Falls,NY,43.2339,-73.7556,WAT,9.0
2613,Stark,NY,44.4553,-74.7614,WAT,26.0
2614,Stewarts Bridge,NY,43.2978,-73.8853,WAT,36.0
2616,Sugar Island,NY,44.642181,-74.976473,WAT,2.0
2617,Taylorville,NY,43.927002,-75.321877,WAT,1.0
2619,Trenton Falls,NY,43.2758,-75.1567,WAT,6.8
2621,Varick,NY,43.4486,-76.5056,WAT,2.0
2623,Waterport,NY,43.3272,-78.2394,WAT,2.0
2624,Yaleville,NY,44.7661,-74.9997,WAT,1.0
2627,Grahamsville,NY,41.8592,-74.5106,WAT,18.0
2630,Mongaup Falls,NY,41.537722,-74.771383,WAT,4.0
2631,Rio,NY,41.4625,-74.7578,WAT,10.0
2634,Swinging Bridge 2,NY,41.5717,-74.7828,WAT,6.8
2638,Rochester 26,NY,43.1522,-77.6098,WAT,3.0
2639,Rochester 2,NY,43.1611,-77.615,WAT,8.5
2641,Rochester 5,NY,43.1803,-77.6278,WAT,12.8
2685,Crescent,NY,42.8056,-73.72264,WAT,2.8
2686,Vischer Ferry,NY,42.80746,-73.84269,WAT,2.8
2691,Blenheim Gilboa,NY,42.4423,-74.4479,WAT,250.0
2692,Lewiston Niagara,NY,43.142973,-79.021958,WAT,20.0
2693,Robert Moses Niagara,NY,43.1427,-79.0394,WAT,193.5
2694,Robert Moses Power Dam,NY,45.0038,-74.7994,WAT,57.0
2700,Watertown,NY,43.975801,-75.874669,WAT,2.7
2707,Blewett,NC,34.9833,-79.8775,WAT,3.2
2710,Marshall Dam,NC,35.702527,-82.710571,WAT,2.5
2714,Tillery,NC,35.206741,-80.06483,WAT,22.0
2715,Walters,NC,35.6946,-83.0503,WAT,36.0
2719,Bridgewater,NC,35.7428,-81.8372,WAT,13.0
2722,Cowans Ford,NC,35.4346,-80.9588,WAT,87.5
2726,Lookout Shoals,NC,35.7575,-81.0894,WAT,8.6
2728,Mountain Island,NC,35.3339,-80.9867,WAT,15.0
2729,Oxford Dam,NC,35.8214,-81.1922,WAT,18.0
2730,Rhodhiss,NC,35.774234,-81.437773,WAT,8.5
2735,Turner Shoals,NC,35.334767,-82.186369,WAT,2.7
2736,Tuxedo,NC,35.245006,-82.389371,WAT,2.5
2741,Bear Creek Dam,NC,35.242677,-83.072007,WAT,9.0
2743,Cedar Cliff,NC,35.2531,-83.0983,WAT,6.4
2745,Franklin (NC),NC,35.2194,-83.3708,WAT,0.5
2746,Mission,NC,35.0647,-83.9258,WAT,0.6
2747,Nantahala,NC,35.2715,-83.6762,WAT,43.2
2749,Tennessee Creek,NC,35.2139,-83.0028,WAT,10.8
2750,Thorpe,NC,35.233988,-83.125398,WAT,21.6
2751,Tuckasegee,NC,35.247011,-83.128111,WAT,3.0
2756,Gaston,NC,36.499147,-77.811543,WAT,44.4
2758,Roanoke Rapids,NC,36.4789,-77.6722,WAT,25.0
2773,Lake Lure,NC,35.42591,-82.184005,WAT,1.2
2778,Chatuge,NC,35.019131,-83.791438,WAT,13.2
2779,Fontana Dam,NC,35.4507,-83.805,WAT,81.0
2780,Hiwassee Dam,NC,35.150864,-84.177533,WAT,70.6
2815,Garrison,ND,47.4945,-101.4115,WAT,121.6
2854,Yankee Street,OH,39.603,-84.2047,SUN,1.1
2953,Mustang,OK,35.46988,-97.67498,SUN,2.5
2980,Markham,OK,36.2317,-95.1822,WAT,32.1
2981,Pensacola,OK,36.4675,-95.041389,WAT,21.6
2982,Salina,OK,36.264685,-95.103558,WAT,43.2
2984,Keystone Dam,OK,36.1508,-96.2517,WAT,35.0
2985,Robert S Kerr,OK,35.34447,-94.7755,WAT,27.5
2987,Webbers Falls,OK,35.5531,-95.1708,WAT,25.0
3003,Fort Gibson,OK,35.8693,-95.2269,WAT,11.2
3004,Tenkiller Ferry,OK,35.595,-95.0511,WAT,19.5
3013,Hells Canyon,OR,45.2439,-116.7008,WAT,130.5
3014,Oxbow (OR),OR,44.971643,-116.835042,WAT,47.5
3020,Clearwater 1,OR,43.251244,-122.337924,WAT,15.0
3021,Clearwater 2,OR,43.266894,-122.409807,WAT,26.0
3024,Eagle Point,OR,42.514575,-122.757062,WAT,2.8
3025,East Side,OR,42.224847,-121.795496,WAT,3.2
3026,Fish Creek,OR,43.274221,-122.448978,WAT,11.0
3029,Lemolo 1,OR,43.3558,-122.2494,WAT,32.0
3032,Prospect 1,OR,42.730717,-122.515122,WAT,3.8
3033,Prospect 2,OR,42.731237,-122.513974,WAT,16.0
3034,Prospect 3,OR,42.730606,-122.41846,WAT,7.2
3035,Prospect 4,OR,42.733073,-122.515079,WAT,1.0
3036,Slide Creek,OR,43.2939,-122.4728,WAT,18.0
3037,Soda Springs,OR,43.3061,-122.5014,WAT,11.0
3040,Toketee Falls,OR,43.272729,-122.447498,WAT,14.2
3041,Wallowa Falls,OR,45.266702,-117.212732,WAT,1.1
3045,Faraday,OR,45.268045,-122.32009,WAT,19.2
3047,North Fork,OR,45.243287,-122.27995,WAT,19.2
3048,Pelton,OR,44.694374,-121.231379,WAT,45.0
3049,River Mill,OR,45.299991,-122.350023,WAT,3.3
3050,Round Butte,OR,44.605837,-121.277334,WAT,112.5
3053,Sullivan,OR,45.354004,-122.618954,WAT,1.2
3067,Carmen Smith,OR,44.285977,-122.041352,WAT,52.2
3071,Walterville,OR,44.069636,-122.835046,WAT,8.0
3074,Big Cliff,OR,44.7514,-122.2832,WAT,18.0
3075,Bonneville,OR,45.6441,-121.941009,WAT,53.5
3076,Cougar,OR,44.1307,-122.2439,WAT,13.0
3077,Detroit,OR,44.7224,-122.2511,WAT,50.0
3078,Dexter,OR,43.9242,-122.8055,WAT,15.0
3080,Green Peter,OR,44.4494,-122.5494,WAT,40.0
3081,Hills Creek,OR,43.7107,-122.4238,WAT,15.0
3082,John Day,OR,45.71644,-120.69408,WAT,135.0
3083,Lookout Point,OR,43.9153,-122.7531,WAT,40.0
3084,McNary,OR,45.9402,-119.2988,WAT,70.0
3117,York Haven,PA,40.113625,-76.71195,WAT,19.6
3124,Piney,PA,41.192088,-79.433501,WAT,10.0
3145,Holtwood,PA,39.827198,-76.331772,WAT,10.4
3153,Wallenpaupack,PA,41.467858,-75.130895,WAT,20.0
3164,Muddy Run,PA,39.8076,-76.2993,WAT,134.0
3175,Safe Harbor,PA,39.9244,-76.39,WAT,33.0
3253,Boyds Mill Hydro,SC,34.455514,-82.199339,WAT,0.7
3255,Cedar Creek (SC),SC,34.5414,-80.8756,WAT,15.0
3256,Dearborn,SC,34.5583,-80.8914,WAT,15.0
3257,Fishing Creek,SC,34.6,-80.8928,WAT,9.3
3258,Gaston Shoals,SC,35.1381,-81.5975,WAT,1.4
3259,Great Falls (SC),SC,34.5592,-80.8917,WAT,3.0
3261,Hollidays Bridge Hydro,SC,34.527475,-82.374964,WAT,1.0
3262,Jocassee,SC,34.9594,-82.9147,WAT,193.5
3267,Saluda Dam,SC,34.852224,-82.483959,WAT,0.6
3270,Wateree Hydro,SC,34.3355,-80.7021,WAT,18.1
3271,Wylie,SC,35.0218,-81.0078,WAT,15.0
3272,99 Islands,SC,35.0314,-81.4936,WAT,3.0
3275,Lockhart,SC,34.7792,-81.4561,WAT,4.2
3283,Columbia Canal Hydro,SC,33.9972,-81.0494,WAT,1.6
3289,Neal Shoals,SC,34.6642,-81.4486,WAT,1.1
3290,Parr Hydro,SC,34.26132,-81.330852,WAT,2.5
3293,Saluda Lexington,SC,34.0533,-81.2172,WAT,32.5
3305,Rocky River (SC),SC,34.2572,-82.6097,WAT,1.8
3319,Jefferies,SC,33.244404,-79.990909,WAT,30.6
3321,Spillway,SC,33.453759,-80.163986,WAT,2.0
3323,J Strom Thurmond,SC,33.6602,-82.1961,WAT,51.7
3356,Oahe,SD,44.4504,-100.3866,WAT,112.3
3373,Fort Randall,SD,43.0653,-98.5539,WAT,40.0
3375,Big Bend Dam,SD,44.0384,-99.4463,WAT,67.3
3394,Apalachia,TN,35.167712,-84.295601,WAT,52.2
3395,Boone Dam,TN,36.4403,-82.4381,WAT,38.0
3397,Cherokee Dam,TN,36.168176,-83.49768,WAT,33.4
3398,Chickamauga,TN,35.101791,-85.229467,WAT,39.9
3400,Douglas Dam,TN,35.9623,-83.5393,WAT,36.5
3401,Fort Patrick Henry,TN,36.4982,-82.5086,WAT,29.7
3402,Fort Loudoun,TN,35.7917,-84.2431,WAT,35.5
3404,Great Falls (TN),TN,35.806732,-85.634063,WAT,15.3
3408,Melton Hill,TN,35.8853,-84.3003,WAT,36.0
3409,Nickajack,TN,35.0017,-85.6218,WAT,27.4
3411,Norris Dam,TN,36.2242,-84.0914,WAT,65.7
3412,Ocoee 1,TN,35.0947,-84.6478,WAT,3.8
3413,Ocoee 2,TN,35.082271,-84.49115,WAT,11.5
3414,Ocoee 3,TN,35.075,-84.4833,WAT,28.8
3415,Pickwick Landing Dam,TN,35.0683,-88.2494,WAT,40.0
3416,South Holston,TN,36.523174,-82.090213,WAT,38.5
3417,Tims Ford,TN,35.1967,-86.2783,WAT,45.0
3418,Watauga,TN,36.3413,-82.1264,WAT,28.8
3420,Watts Bar Hydro,TN,35.619673,-84.785527,WAT,41.0
3421,Wilbur,TN,36.341667,-82.126389,WAT,1.2
3423,Cordell Hull,TN,36.289539,-85.94416,WAT,33.3
3424,Dale Hollow,TN,36.5378,-85.4517,WAT,18.0
3426,Old Hickory,TN,36.2972,-86.6556,WAT,28.7
3428,J P Priest,TN,36.1564,-86.6186,WAT,28.0
3437,Eagle Pass,TX,28.829535,-100.552234,WAT,3.2
3581,Abbott TP 3,TX,29.593951,-98.040734,WAT,1.4
3582,Dunlap TP 1,TX,29.640187,-98.045934,WAT,1.8
3583,H 4,TX,29.495193,-97.624948,WAT,2.4
3584,H 5,TX,29.4681,-97.4919,WAT,2.4
3585,Nolte,TX,29.537565,-97.932106,WAT,1.2
3586,TP 4,TX,29.548136,-97.999587,WAT,2.4
3594,Austin,TX,30.293424,-97.784408,WAT,9.0
3595,Buchanan Dam (TX),TX,30.7507,-98.4176,WAT,18.3
3597,Granite Shoals,TX,30.556,-98.3384,WAT,27.0
3598,Inks,TX,30.731599,-98.385422,WAT,15.0
3599,Marble Falls,TX,30.555288,-98.257593,WAT,19.8
3600,Marshall Ford,TX,30.3899,-97.9073,WAT,36.0
3643,Upper Beaver,UT,38.2683,-112.4806,WAT,1.3
3646,Cutler Hydro,UT,41.834702,-112.052114,WAT,15.0
3651,Granite,UT,40.619173,-111.78208,WAT,2.0
3656,Pioneer,UT,41.243643,-111.946478,WAT,2.5
3658,Snake Creek,UT,40.544942,-111.502911,WAT,0.6
3659,Stairs,UT,40.6236,-111.7533,WAT,1.0
3661,Weber,UT,41.137621,-111.884948,WAT,3.8
3666,Brigham City,UT,41.501619,-111.99345,WAT,0.6
3675,Hydro III,UT,41.746364,-111.746023,WAT,0.7
3676,Manti Upper,UT,39.255911,-111.621491,WAT,0.6
3688,Bartholomew,UT,40.167136,-111.499461,WAT,1.0
3691,Spanish Fork,UT,40.080042,-111.604846,WAT,1.7
3697,Gateway,UT,41.136547,-111.831441,WAT,2.0
3698,Wanship,UT,40.7904,-111.4043,WAT,1.9
3699,Boulder,UT,37.9858,-111.4383,WAT,1.4
3704,Uintah,UT,40.538056,-110.066111,WAT,0.6
3709,Smith (VT),VT,43.9921,-72.1282,WAT,1.0
3710,Cavendish,VT,43.381225,-72.598242,WAT,0.6
3711,Clark Falls,VT,44.6356,-73.12,WAT,3.0
3712,Fairfax Falls,VT,44.6534,-72.9961,WAT,1.4
3714,Glen,VT,43.6367,-72.976,WAT,1.0
3716,Lower Middlebury,VT,44.0249,-73.1768,WAT,0.8
3717,Milton,VT,44.641433,-73.113364,WAT,3.7
3720,Peterson,VT,44.6381,-73.1625,WAT,6.3
3722,Pittsford,VT,43.694,-72.955,WAT,1.3
3724,Salisbury,VT,43.8954,-73.1007,WAT,1.3
3725,Silver Lake (VT),VT,43.898584,-73.053125,WAT,2.2
3728,Weybridge,VT,44.0661,-73.2158,WAT,3.0
3731,Newport,VT,44.937579,-72.179968,WAT,1.7
3737,Essex Junction 19,VT,44.4821,-73.1164,WAT,1.8
3739,Marshfield 6,VT,44.3606,-72.3356,WAT,5.0
3740,Middlesex 2,VT,44.292391,-72.6824,WAT,1.6
3743,West Danville 15,VT,44.4056,-72.1881,WAT,1.0
3745,Bellows Falls,VT,43.1375,-72.4464,WAT,13.6
3746,Harriman,VT,42.7936,-72.9144,WAT,11.2
3750,Canaan,VT,44.999274,-71.530164,WAT,1.1
3753,West Charleston,VT,44.887379,-72.055357,WAT,0.7
3762,Great Falls (VT),VT,44.500222,-71.998921,WAT,0.3
3764,Morrisville,VT,44.561831,-72.602369,WAT,0.6
3765,Cadys Falls,VT,44.577553,-72.611861,WAT,0.8
3772,Buck Hydro,VA,36.808229,-80.938714,WAT,2.8
3773,Byllesby 2,VA,36.7858,-80.9333,WAT,5.4
3774,Claytor,VA,37.075,-80.5847,WAT,18.7
3777,Leesville,VA,37.0933,-79.4025,WAT,20.0
3778,Niagara,VA,37.2544,-79.8756,WAT,2.4
3779,Reusens,VA,37.4639,-79.1856,WAT,2.5
3780,Smith Mountain,VA,37.0413,-79.5356,WAT,66.0
3789,Luray Hydro Station,VA,38.676667,-78.498888,WAT,0.6
3790,Newport Hydro Station,VA,38.571389,-78.593611,WAT,0.4
3798,Cushaw,VA,37.592887,-79.380823,WAT,1.5
3821,Snowden,VA,37.5736,-79.3715,WAT,2.5
3825,Pinnacles,VA,36.666866,-80.447897,WAT,3.7
3826,Martinsville,VA,36.664145,-79.883588,WAT,0.3
3827,Radford,VA,37.078366,-80.572726,WAT,1.0
3833,John H Kerr,VA,36.59943,-78.3005,WAT,13.8
3834,Philpott Lake,VA,36.7803,-80.0281,WAT,6.7
3847,Merwin,WA,45.9567,-122.554444,WAT,45.0
3850,Swift 1,WA,46.060833,-122.201667,WAT,80.0
3852,Yale,WA,45.96277,-122.335467,WAT,67.0
3854,Electron,WA,46.990967,-122.174921,WAT,5.1
3855,Lower Baker,WA,48.5478,-121.7407,WAT,80.8
3860,Snoqualmie,WA,47.54011,-121.83702,WAT,1.5
3861,Upper Baker,WA,48.649,-121.6907,WAT,52.4
3866,Little Falls (WA),WA,47.821667,-117.916667,WAT,10.8
3867,Long Lake,WA,47.834444,-117.836111,WAT,17.5
3868,Meyers Falls,WA,48.5953,-118.0603,WAT,0.9
3869,Nine Mile,WA,47.769722,-117.537222,WAT,8.8
3878,Yelm,WA,46.974912,-122.635795,WAT,3.0
3883,Rocky Reach,WA,47.533611,-120.295278,WAT,114.0
3886,Wells,WA,47.9469,-119.8653,WAT,77.4
3887,Priest Rapids,WA,46.6451,-119.908,WAT,95.0
3888,Wanapum,WA,46.8731,-119.9703,WAT,122.0
3891,Box Canyon,WA,48.780856,-117.418337,WAT,22.5
3895,The Dalles,OR,45.614,-121.1346,WAT,78.0
3913,Alder,WA,46.8016,-122.3102,WAT,25.0
3914,Cushman 1,WA,47.4181,-123.2252,WAT,21.6
3915,Cushman 2,WA,47.3698,-123.1603,WAT,27.0
3916,LaGrande,WA,46.8328,-122.3196,WAT,6.0
3917,Mayfield,WA,46.5035,-122.5885,WAT,40.5
3918,Mossyrock,WA,46.5347,-122.4247,WAT,150.0
3921,Chief Joseph,WA,47.9951,-119.6404,WAT,88.2
3925,Ice Harbor,WA,46.249801,-118.879838,WAT,90.0
3926,Little Goose,WA,46.5838,-118.0273,WAT,135.0
3927,Lower Monumental,WA,46.5635,-118.5397,WAT,135.0
3929,Packwood,WA,46.595833,-121.569444,WAT,27.5
3971,Biron,WI,44.4306,-89.7808,WAT,1.4
3972,Du Bay,WI,44.6647,-89.6511,WAT,1.2
3973,Stevens Point,WI,44.5153,-89.585,WAT,0.8
3974,Wisconsin Rapids,WI,44.3939,-89.825,WAT,1.8
3975,Whiting,WI,44.4889,-89.5756,WAT,1.2
3983,Big Falls,WI,45.491667,-91.0469,WAT,2.6
3986,Ladysmith Dam,WI,45.464444,-91.083611,WAT,0.9
3988,Thornapple,WI,45.411139,-91.218283,WAT,0.7
3989,White River (WI),WI,46.498333,-90.903889,WAT,0.5
3995,Arpin Dam,WI,45.7517,-91.2028,WAT,0.6
3998,Cedar Falls (WI),WI,44.9367,-91.8883,WAT,2.0
4000,Chippewa Falls,WI,44.9308,-91.3889,WAT,3.6
4002,Dells,WI,44.828056,-91.511111,WAT,2.9
4007,Holcombe,WI,45.223611,-91.127222,WAT,11.3
4008,Jim Falls,WI,45.051,-91.274,WAT,29.6
4009,Menomonie,WI,44.884167,-91.929444,WAT,2.7
4011,St Croix Falls,WI,45.41167,-92.6469,WAT,2.5
4012,Trego,WI,45.94794,-91.888374,WAT,0.7
4015,Wissota,WI,44.9378,-91.3406,WAT,6.0
4018,Clam River Dam,WI,45.9467,-92.5383,WAT,0.4
4019,Danbury Dam,WI,46,-92.3725,WAT,0.1
4043,Appleton,WI,44.25393,-88.40956,WAT,1.2
4044,Oconto Falls Upper,WI,44.8764,-88.1475,WAT,0.4
4045,Pine,WI,45.8275,-88.2483,WAT,1.8
4053,Kilbourn,WI,43.625845,-89.780764,WAT,2.5
4056,Prairie Du Sac,WI,43.309932,-89.727778,WAT,3.5
4060,Alexander,WI,45.1875,-89.7553,WAT,1.4
4061,Caldron Falls,WI,45.3569,-88.2306,WAT,3.2
4063,Grandfather Falls,WI,45.3019,-89.7917,WAT,11.0
4064,Hat Rapids,WI,45.5711,-89.4806,WAT,0.8
4065,High Falls (WI),WI,45.2794,-88.1997,WAT,1.4
4067,Johnson Falls,WI,45.2875,-88.1603,WAT,1.7
4068,Merrill,WI,45.1786,-89.685,WAT,0.4
4071,Potato Rapids,WI,45.1136,-87.7586,WAT,0.5
4074,Sandstone Rapids,WI,45.2333,-88.0678,WAT,1.9
4075,Tomahawk,WI,45.4411,-89.7306,WAT,1.3
4077,Wausau,WI,44.9575,-89.6367,WAT,1.8
4079,Castle Rock,WI,43.8656,-89.9514,WAT,3.0
4080,Petenwell,WI,44.0572,-90.0217,WAT,5.0
4102,Barron,WI,45.40193,-91.840382,WAT,0.1
4119,Little Chute,WI,44.279897,-88.25558,WAT,1.1
4120,New Badger,WI,44.2772,-88.2678,WAT,4.1
4122,Rapide Croche,WI,44.3164,-88.3147,WAT,0.6
4142,Flambeau Hydroelectric Station,WI,45.491826,-91.047211,WAT,7.9
4147,Stiles,WI,44.8747,-88.1586,WAT,0.5
4176,Fremont Canyon,WY,42.4766,-106.795901,WAT,33.4
4177,Glendo,WY,42.467254,-104.955526,WAT,19.0
4178,Guernsey,WY,42.289868,-104.760634,WAT,3.2
4180,Kortes,WY,42.174301,-106.880543,WAT,12.0
4182,Seminoe,WY,42.156127,-106.908483,WAT,17.2
4183,Shoshone (WY),WY,44.502897,-109.181228,WAT,3.0
4185,Fontenelle,WY,42.027013,-110.063973,WAT,10.0
4201,Combined Locks,WI,44.273511,-88.300548,WAT,3.1
4204,Island Park,ID,44.418293,-111.395971,WAT,2.4
4213,PHP 1,OR,45.481708,-122.083188,WAT,23.7
4214,PHP 2,OR,45.448977,-122.151257,WAT,11.8
4258,Greenup Hydro,OH,38.6472,-82.8594,WAT,23.4
4263,Echo Dam,UT,40.964828,-111.433937,WAT,1.0
6006,Racine,OH,38.9153,-81.9081,WAT,23.7
6012,Sherman,MA,42.7297,-72.9303,WAT,7.2
6047,Deerfield 2,MA,42.573084,-72.707274,WAT,1.6
6074,Greenwood (MO),MO,38.8615,-94.2982,SUN,3.0
6081,Stony Brook,MA,42.1978,-72.5106,SUN,6.9
6083,Deerfield 3,MA,42.5995,-72.7335,WAT,1.6
6086,Cornell,WI,45.164024,-91.157427,WAT,11.5
6087,Wallace Dam,GA,33.3502,-83.1574,WAT,52.2
6100,Helms Pumped Storage,CA,37.029304,-118.968252,WAT,351.0
6119,Deerfield 4,MA,42.6198,-72.7376,WAT,1.6
6126,Fairfield Pumped Storage,SC,34.3061,-81.3308,WAT,73.4
6128,Amistad Dam & Power,TX,29.449827,-101.06011,WAT,33.0
6130,Carters,GA,34.6121,-84.6733,WAT,125.0
6131,Jones Bluff,AL,32.324242,-86.784319,WAT,20.5
6132,Richard B Russell,GA,34.0256,-82.5953,WAT,75.0
6133,West Point (GA),GA,32.918674,-85.1887,WAT,3.3
6140,Clarence Cannon,MO,39.524791,-91.643969,WAT,27.0
6141,Harry Truman,MO,38.2623,-93.4062,WAT,26.9
6142,Ozark,AR,35.4693,-93.8175,WAT,20.0
6151,Raccoon Mountain,TN,35.055795,-85.387934,WAT,428.4
6158,New Melones,CA,37.946927,-120.528211,WAT,150.0
6159,Crystal,CO,38.510573,-107.625335,WAT,28.0
6163,Grand Coulee,WA,47.957511,-118.977323,WAT,125.0
6167,Bath County,VA,38.20889,-79.8,WAT,477.0
6168,North Anna,VA,38.06,-77.7897,WAT,1.0
6171,Laurel Dam,KY,36.9614,-84.27,WAT,70.0
6172,Libby,MT,48.4098,-115.3143,WAT,105.0
6174,Lost Creek,OR,42.6717,-122.6772,WAT,24.5
6175,Lower Granite,WA,46.659503,-117.429385,WAT,135.0
6188,Harris Dam,AL,33.258281,-85.616047,WAT,67.5
6189,Rocky Mountain Hydroelectric Plant,GA,34.355538,-85.303942,WAT,282.6
6196,W E Warne,CA,34.6853,-118.7881,WAT,37.1
6200,Rock Island,WA,47.346111,-120.0917,WAT,1.2
6202,Ross,WA,48.732577,-121.06788,WAT,112.5
6206,Tacoma,CO,37.52372,-107.782786,WAT,2.3
6207,Ames Hydro,CO,37.866,-107.8831,WAT,3.6
6208,Mount Elbert,CO,39.094197,-106.352331,WAT,100.0
6231,Apple River,WI,45.157552,-92.716214,WAT,0.8
6265,Swift 2,WA,46.0594,-122.2594,WAT,36.0
6280,Ozark Beach,MO,36.658995,-93.1235,WAT,4.0
6291,Cooper Lake,AK,60.392331,-149.665603,WAT,9.7
6302,Purple Lake,AK,55.091263,-131.544978,WAT,1.3
6304,Kotzebue Hybrid,AK,66.837778,-162.556944,WND,0.1
6359,Felt,ID,43.913476,-111.283319,WAT,2.7
6378,Dwight,MA,42.149497,-72.610949,WAT,0.4
6379,Indian Orchard,MA,42.160954,-72.507631,WAT,1.5
6388,Turners Falls,MA,42.608042,-72.561458,WAT,1.4
6393,Strawberry Creek,WY,42.905142,-110.893422,WAT,0.5
6394,Swift Creek,WY,42.728439,-110.916592,WAT,0.8
6395,Anderson Ranch,ID,43.357066,-115.451517,WAT,20.0
6396,Black Canyon,ID,43.930462,-116.437172,WAT,5.1
6397,Boise R Diversion,ID,43.537685,-116.093756,WAT,1.1
6398,Minidoka,ID,42.669899,-113.483175,WAT,2.7
6400,Canyon Ferry,MT,46.649026,-111.727874,WAT,19.2
6402,Elephant Butte,NM,33.153358,-107.191973,WAT,9.3
6403,Green Springs,OR,42.121168,-122.547896,WAT,17.2
6404,Deer Creek (UT),UT,40.404354,-111.528446,WAT,2.4
6405,Flaming Gorge,UT,40.914646,-109.421662,WAT,50.6
6406,Chandler,WA,46.26678,-119.589821,WAT,6.0
6407,Roza,WA,46.618413,-120.477759,WAT,12.9
6408,Heart Mountain,WY,44.513767,-109.129588,WAT,5.0
6409,Alcova,WY,42.548412,-106.717536,WAT,20.7
6410,Falcon Dam & Power,TX,26.5575,-99.1642,WAT,10.5
6413,Sam Rayburn Dam,TX,31.060893,-94.1062,WAT,26.0
6414,Whitney,TX,31.8694,-97.3667,WAT,20.9
6415,Broken Bow Dam,OK,34.138779,-94.684498,WAT,50.0
6416,Denison,TX,33.8181,-96.5692,WAT,53.5
6417,Center Hill,TN,36.0972,-85.8274,WAT,45.0
6418,Cheatham,TN,36.3208,-87.2219,WAT,12.0
6419,Eufaula Dam,OK,35.3069,-95.3572,WAT,30.0
6421,Lemolo 2,OR,43.280611,-122.40248,WAT,43.7
6422,Madison Dam,MT,45.487869,-111.633807,WAT,4.1
6424,Chelan,WA,47.8347,-120.0133,WAT,29.6
6430,Cedar Falls (WA),WA,47.4193,-121.781858,WAT,15.0
6431,Gorge,WA,48.698056,-121.208611,WAT,36.8
6432,Diablo,WA,48.713853,-121.131736,WAT,90.0
6433,Boundary,WA,48.987111,-117.347847,WAT,180.5
6438,Queens Creek,NC,35.27127,-83.676016,WAT,1.4
6440,Wilson Dam,AL,34.79782,-87.62537,WAT,23.0
6449,Azusa,CA,34.1548,-117.9093,WAT,3.0
6450,Proctor,VT,43.662775,-73.034023,WAT,1.6
6451,Beldens,VT,44.0525,-73.1762,WAT,0.8
6456,Carver Falls,NY,43.6262,-73.3073,WAT,1.3
6459,Big Fork,MT,48.0592,-114.0708,WAT,1.7
6475,Gorge 18,VT,44.489997,-73.169312,WAT,3.0
6479,San Francisquito 1,CA,34.590183,-118.454676,WAT,22.5
6480,San Francisquito 2,CA,34.534337,-118.525113,WAT,14.0
6483,Mcindoes,VT,44.2603,-72.0592,WAT,2.6
6484,Bend,OR,44.062326,-121.313331,WAT,0.2
6486,Mill C,NY,44.6967,-73.6122,WAT,1.0
6505,Oak Grove,OR,45.122009,-122.06987,WAT,25.5
6506,Moyie Springs,ID,48.7339,-116.1752,WAT,1.0
6507,Drop 2 (WA),WA,46.4492,-120.5342,WAT,2.5
6508,Drop 3 (WA),WA,46.423133,-120.559997,WAT,0.8
6513,Fleish,NV,39.2851,-119.5933,WAT,2.5
6517,Keowee,SC,34.7981,-82.8872,WAT,78.8
6519,Vergennes 9,VT,44.1664,-73.2575,WAT,0.7
6520,Waterbury 22,VT,44.38126,-72.76769,WAT,5.5
6521,Lahontan,NV,39.4625,-119.0667,WAT,0.6
6522,Yards Creek Energy,NJ,41.0006,-75.0314,WAT,151.0
6526,Rainbow Falls Auscble,NY,44.5236,-73.4617,WAT,1.3
6527,E J West,NY,43.318906,-73.920785,WAT,11.0
6529,Searsburg,VT,42.87084,-72.92732,WAT,4.0
6531,Verdi,NV,39.3125,-119.585,WAT,2.4
6532,Washoe,NV,39.3022,-119.5604,WAT,1.3
6537,Little Cottonwood,UT,40.584985,-111.800605,WAT,2.4
6543,Dam No. 4 Hydro Station,WV,39.493056,-77.826944,WAT,0.5
6544,Dam No. 5 Hydro Station,WV,39.605,-77.923055,WAT,0.5
6546,Millville Hydro Station,WV,39.273056,-77.784444,WAT,0.8
6552,Foster,OR,44.4146,-122.6712,WAT,10.0
6560,London,WV,38.1944,-81.3706,WAT,4.8
6561,Marmet,WV,38.2526,-81.5695,WAT,4.8
6562,Winfield,WV,38.5274,-81.91392,WAT,14.7
6580,Beaver Falls,AK,55.37975,-131.470269,WAT,1.0
6581,Silvis,AK,55.381402,-131.517758,WAT,2.1
6595,Toledo Bend,TX,31.173484,-93.565877,WAT,40.5
6612,Union Valley,CA,38.86429,-120.444335,WAT,38.6
6618,Highgate Falls,VT,44.933611,-73.051111,WAT,1.1
6623,Fort Peck,MT,48.0122,-106.4123,WAT,41.2
6624,Gavins Point,NE,42.848829,-97.481479,WAT,44.1
6636,Lake Lynn Hydro Station,PA,39.720278,-79.856111,WAT,12.8
6644,Lake Mathews,CA,33.8553,-117.4537,WAT,4.9
6645,Foothill Feeder,CA,34.5148,-118.6092,WAT,4.5
6646,San Dimas,CA,34.1275,-117.7958,WAT,9.9
6647,Yorba Linda,CA,33.9117,-117.8192,WAT,5.1
6702,Pelican,AK,57.957197,-136.220095,WAT,0.6
6789,St Stephen,SC,33.4261,-79.93,WAT,28.0
7012,Lower No 1,ID,43.468679,-112.062499,WAT,8.0
7015,Unit 4,UT,39.544108,-111.418727,WAT,1.3
7034,Hydro II,UT,41.743728,-111.783169,WAT,3.3
7040,Ellis Hydro,AR,35.351361,-94.294349,WAT,10.8
7042,Humpback Creek,AK,60.612822,-145.679411,WAT,0.5
7051,Wrightsville Hydro Plant,VT,44.309693,-72.575305,WAT,0.1
7056,Bolton Falls,VT,44.359381,-72.81673,WAT,4.4
7066,Stampede,CA,39.470447,-120.10455,WAT,3.0
7072,Mojave Siphon,CA,34.307444,-117.323548,WAT,10.9
7079,Upper Salmon B,ID,42.766397,-114.908236,WAT,8.2
7113,PEC Headworks,WA,47.159553,-119.896306,WAT,6.6
7115,Hoist,MI,46.5628,-87.5686,WAT,1.4
7116,McClure Dam,MI,46.5717,-87.4764,WAT,4.0
7118,Cataract (MI),MI,46.3156,-87.5128,WAT,2.0
7125,Bad Creek,SC,35.0075,-82.9975,WAT,420.0
7127,Wynoochee,WA,47.385072,-123.605225,WAT,12.8
7128,William F Matson Generating Station,PA,40.432915,-78.002887,WAT,7.0
7129,Thermalito Diverson Dam,CA,39.528749,-121.546359,WAT,3.4
7132,Pine View Dam,UT,41.254331,-111.848525,WAT,1.8
7135,Whillock,AR,35.127591,-92.790273,WAT,10.8
7147,Mill Creek 3,CA,34.088019,-117.039539,WAT,1.0
7151,Stony Gorge,CA,39.586864,-122.533248,WAT,2.5
7164,Waddell,AZ,33.8447,-112.2714,WAT,10.0
7166,Murray,AR,34.7956,-92.3569,WAT,22.7
7168,Chester Lake,AK,55.116879,-131.545879,WAT,1.3
7179,Headgate Rock,AZ,34.168264,-114.277356,WAT,6.5
7183,Newhalen,AK,59.899054,-154.698735,WAT,0.4
7189,Whiskeytown,CA,40.597617,-122.538683,WAT,3.5
7190,Milner Hydro,ID,42.526786,-114.036889,WAT,46.6
7191,Tallassee Hydro Project,GA,33.989153,-83.498448,WAT,2.2
7200,Robert D Willis,TX,30.7975,-94.1756,WAT,4.0
7229,Black Butte,CA,39.814905,-122.332335,WAT,6.1
7233,Tesla,CO,38.973655,-104.901141,WAT,26.6
7246,Dam 2,AR,33.986501,-91.315788,WAT,34.2
7259,Skookumchuck,WA,46.7844,-122.7197,WAT,1.0
7279,O'Shaughnessy Hydro,OH,40.153328,-83.126719,WAT,1.3
7317,Buffalo Bill,WY,44.508169,-109.170661,WAT,6.0
7338,Grizzly,CA,39.889287,-121.279173,WAT,22.0
7367,Bradley Lake,AK,59.77862,-150.94015,WAT,63.0
7372,McPhee,CO,37.57522,-108.574002,WAT,1.2
7373,Towaoc,CO,37.429538,-108.574871,WAT,11.4
7381,Searsburg Wind Turbine,VT,42.8625,-72.9628,WND,6.0
7427,Cowlitz Falls,WA,46.4661,-122.1097,WAT,35.0
7431,Dalles Dam North Fishway Project,OR,45.614375,-121.136885,WAT,6.5
7458,Basalt,CO,39.363056,-106.821944,WAT,5.0
7474,Upper Sterling,IL,41.787115,-89.677526,WAT,1.1
7489,Lake Mendocino,CA,39.197222,-123.185556,WAT,1.0
7493,King Cove,AK,55.04817,-162.29323,WAT,0.8
7501,Princeton Wind Farm,MA,42.4789,-71.9,WND,3.0
7507,Deadwood Creek,CA,39.53,-121.095833,WAT,2.0
7508,Stone Creek,OR,45.081111,-121.886611,WAT,12.0
7511,McNary Dam Fish Attraction Project,WA,45.940034,-119.299078,WAT,10.0
7526,Solano Wind,CA,38.116415,-121.769031,WND,24.0
7541,Spirit Mountain,WY,44.512699,-109.129878,WAT,4.5
7545,Kaw Hydro,OK,36.6994,-96.9278,WAT,37.0
7548,Causey,UT,41.297229,-111.588849,WAT,1.5
7583,Talcville,NY,44.3083,-75.3083,WAT,1.0
7588,H M Jackson,WA,47.9084,-121.8144,WAT,47.5
7593,El Vado Dam,NM,36.592775,-106.73213,WAT,8.0
7594,Belleville Dam,WV,39.1192,-81.7375,WAT,21.0
7646,Monticello Dam,CA,38.513056,-122.104444,WAT,5.0
7657,Auglaize Hydro,OH,41.237206,-84.399756,WAT,0.7
7751,Goat Lake Hydro,AK,59.5357,-135.2123,WAT,4.0
7752,Black Bear Lake,AK,55.476472,-133.14772,WAT,4.5
7771,Springview,NE,42.82579,-99.777467,WND,1.5
7789,Abiquiu Dam,NM,36.239886,-106.423043,WAT,6.3
7790,Bonanza,UT,40.0864,-109.2844,SUN,12.5
7807,Hamilton Hydro,OH,39.4128,-84.5558,WAT,1.1
7810,Argyle,WI,42.7019,-89.8697,WAT,0.1
7820,Big Quinnesec 92,MI,45.7881,-88.0408,WAT,8.0
7821,Big Quinnesec 61,MI,45.7883,-88.0415,WAT,2.2
7822,Kaukauna City Hydro,WI,44.274582,-88.319074,WAT,2.4
7855,Moorhead Wind Turbine,MN,46.895,-96.7347,WND,0.7
7862,Power Creek,AK,60.588686,-145.604539,WAT,3.0
7867,Snoqualmie 2,WA,47.5445,-121.8414,WAT,14.4
7886,Wind Turbine,WI,44.6694,-87.6333,WND,11.0
7907,Pine Flat,CA,36.8326,-119.327,WAT,55.0
7911,Kern Canyon,CA,35.44072,-118.796498,WAT,11.5
7927,Buffalo Mountain,TN,36.120994,-84.338733,WND,0.6
7936,Nine Canyon,WA,46.0958,-119.0964,WND,95.9
7942,Diamond Valley Lake,CA,33.6808,-117.0698,WAT,3.3
7966,Iowa Distributed Wind Generation Project,IA,43.034722,-94.140556,WND,2.3
8004,Fife Brook,MA,42.685681,-72.977634,WAT,11.2
8005,Bear Swamp,MA,42.6839,-72.9599,WAT,333.0
8223,Springerville,AZ,34.3186,-109.1639,SUN,3.7
8225,Seneca Generation LLC,PA,41.8389,-79.0056,WAT,205.9
8902,Hoover Dam (AZ),AZ,36.01551,-114.738006,WAT,2.4
9095,Monroe Street,WA,47.653611,-117.420556,WAT,14.8
9096,Upper Falls,WA,47.654444,-117.418889,WAT,10.0
9842,Newhalem,WA,48.675944,-121.240826,WAT,2.3
9864,Cabot Holyoke,MA,42.2,-72.61,WAT,0.8
10005,Dinosaur Point,CA,37.0478,-121.1708,WND,17.4
10014,Lucky Peak Power Plant Project,ID,43.528,-116.0583,WAT,45.0
10025,"RED-Rochester, LLC",NY,43.1989,-77.6319,WAT,0.4
10029,General Electric Aircraft Engines,MA,42.45,-70.9739,SUN,1.5
10036,Hillsborough Hosiery,NH,43.11391,-71.894001,WAT,0.6
10049,Little Mac Project,ID,42.629637,-114.66162,WAT,0.3
10063,Derby Hydro,CT,41.324308,-73.102111,WAT,4.0
10066,Lockwood Hydroelectric Facility,ME,44.5467,-69.6292,WAT,0.8
10070,Foothills Hydro Plant,CO,39.4588,-105.0657,WAT,3.1
10081,Strontia Springs Hydro Plant,CO,39.4326,-105.1263,WAT,1.0
10109,Stevens Mills Dam,NH,43.446107,-71.644646,WAT,0.2
10116,Hampshire Paper,NY,44.296544,-75.36645,WAT,3.4
10121,High Shoals Hydro (GA),GA,33.816547,-83.504932,WAT,1.4
10124,Hollow Dam Power Partnership,NY,44.296453,-75.336142,WAT,0.5
10128,Gosselin Hydro Plant,CA,40.37,-123.4347,WAT,1.0
10137,Deweys Mill,VT,43.6411,-72.4061,WAT,2.5
10138,South Dry Creek Hydro,MT,45.206341,-109.1652,WAT,2.0
10139,Isabella Hydro Project,CA,35.64414,-118.48199,WAT,5.9
10140,Birch Creek Power,ID,44.027444,-112.719439,WAT,2.6
10152,Warrior Ridge Hydro,PA,40.540042,-78.034628,WAT,0.7
10155,Brasfield,VA,37.220833,-77.524504,WAT,2.9
10162,Whitewater Hydro Plant,CA,33.934725,-116.640548,WAT,1.3
10173,Cherokee Falls,SC,35.0642,-81.5458,WAT,4.3
10181,Metropolitan Sewerage District,NC,35.6497,-82.5992,WAT,0.8
10183,Mine Falls Generating Station,NH,42.750278,-71.505278,WAT,1.5
10186,Anson Abenaki Hydros,ME,44.7975,-69.8867,WAT,3.0
10191,Tehachapi Wind Resource I,CA,35.060556,-118.389722,WND,8.7
10196,Moose River,NY,43.610664,-75.341325,WAT,12.6
10197,Philadlephia,NY,44.158611,-75.708778,WAT,3.6
10214,Lower Saranac Hydroelectric Facility,NY,44.6694,-73.5075,WAT,3.2
10218,Warrensburg Hydroelectric,NY,43.4833,-73.7986,WAT,2.9
10219,Middle Falls Hydro,NY,43.098711,-73.525271,WAT,1.1
10220,Sissonville Hydro,NY,44.685589,-75.002868,WAT,3.0
10221,New York State Dam Hydro,NY,42.781779,-73.696096,WAT,5.7
10222,Tulare Success Power Project,CA,36.058635,-118.924097,WAT,1.4
10224,Merck Rahway Power Plant,NJ,40.615616,-74.26529,SUN,0.5
10237,Diana Hydroelectric,NY,44.151944,-75.321725,WAT,1.8
10238,Dolgeville Hydro,NY,43.090635,-74.766961,WAT,5.0
10253,Haypress,CA,39.565677,-120.581684,WAT,5.0
10255,West Enfield Hydro,ME,45.2497,-68.6483,WAT,6.5
10258,Haw River Hydro,NC,35.9483,-79.3244,WAT,1.0
10276,Clement Dam Hydro LLC,NH,43.440538,-71.595975,WAT,2.4
10279,Kansas River Project,KS,38.974022,-95.235078,WAT,0.3
10282,Big Creek Water Works,CA,40.646733,-123.498008,WAT,5.0
10285,Townsend Hydro,PA,40.733545,-80.314795,WAT,2.6
10286,Cornell Hydro,NY,42.451922,-76.485092,WAT,0.8
10296,South Forks Hydro,ID,42.4937,-114.3102,WAT,4.0
10323,Copper Dam Plant,OR,45.66523,-121.523761,WAT,2.6
10324,Peters Drive Plant,OR,45.66764,-121.548455,WAT,1.8
10325,Mink Creek Hydro,ID,42.260844,-111.665589,WAT,3.1
10334,H Power,HI,21.300036,-158.098615,SUN,2.9
10412,Kalaheo Hydro,HI,21.936075,-159.528581,WAT,2.0
10413,Wainiha Hydro,HI,22.196292,-159.556142,WAT,1.8
10421,Dillon Hydro Plant,CO,39.6208,-106.0662,WAT,1.8
10422,Williams Fork Hydro Plant,CO,40.035,-106.2053,WAT,3.0
10423,North Fork Hydro Plant,CO,39.4616,-105.677,WAT,5.5
10424,Gross Hydro Plant,CO,39.9456,-105.3565,WAT,4.0
10437,Sunray 2,CA,34.863356,-116.827627,SUN,20.0
10438,Sunray 3,CA,34.863356,-116.827627,SUN,13.8
10444,"Lockhart Solar PV, LLC",CA,35.0308,-117.3563,SUN,100.4
10453,LAC Courte Oreilles Hydroelect,WI,45.888333,-91.076944,WAT,0.2
10458,Muck Valley Hydroelectric,CA,40.976389,-121.255833,WAT,29.9
10467,Fourth Branch Hydroelectric Facility,NY,42.787575,-73.691676,WAT,3.3
10487,International Falls Power,MN,48.608054,-93.404313,WAT,2.2
10490,Upper Beaver Falls Project,NY,43.883611,-75.428056,WAT,1.5
10493,Rumford Falls Hydro Facility,ME,44.5486,-70.6283,WAT,8.1
10494,Sheldon Springs Hydroelectric,VT,44.9108,-72.9736,WAT,1.8
10519,Milton Hydro,NH,43.403087,-70.98647,WAT,0.2
10520,Dayton Hydro,IL,41.387792,-88.789656,WAT,1.6
10523,Benton Falls Associates,ME,44.580175,-69.55452,WAT,3.5
10526,Dodge Falls Associates,NH,44.2081,-72.0581,WAT,5.0
10530,Feeder Dam Hydro Plant,NY,43.289874,-73.665834,WAT,1.0
10531,Beebee Island Hydro Plant,NY,43.9767,-75.9072,WAT,4.0
10538,Dexter Plant,NY,44.003984,-76.041277,WAT,0.5
10539,Theresa Plant,NY,44.21742,-75.795173,WAT,1.0
10540,Diamond Island Plant,NY,43.978626,-75.886102,WAT,0.4
10544,Hailesboro 4 Plant,NY,44.311681,-75.444992,WAT,0.8
10545,Copenhagen Plant,NY,43.899745,-75.660268,WAT,1.5
10546,Beaver Valley Patterson Dam,PA,40.744105,-80.317839,WAT,0.4
10547,Pyrites Plant,NY,44.522043,-75.188108,WAT,1.2
10550,High Shoals Hydro (NC),NC,35.394254,-81.201002,WAT,1.8
10555,Brassua Hydroelectric Project,ME,45.6603,-69.812168,WAT,3.6
10556,Boott Hydropower,MA,42.652454,-71.322383,WAT,7.5
10570,Errol Hydroelectric Project,NH,44.786648,-71.12433,WAT,3.0
10586,Cameron Ridge LLC,CA,35.075,-118.3158,WND,59.6
10597,Ridgetop Energy LLC,CA,35.0697,-118.3167,WND,29.0
10608,Gilman Mill,VT,44.4122,-71.7228,WAT,2.2
10613,"Woodland Pulp, LLC",ME,45.1554,-67.4012,WAT,3.0
10656,French Paper Hydro,MI,41.8203,-86.2592,WAT,0.3
10686,Rapids Energy Center,MN,47.234825,-93.537169,WAT,1.9
10687,Black River Hydro Associates,NY,43.591246,-75.344207,WAT,1.6
10694,Pepperell Hydro Power Plant,MA,42.668889,-71.575556,WAT,0.8
10706,Burney Creek,CA,40.8579,-121.7225,WAT,3.0
10707,Cove Hydroelectric,CA,40.8713,-121.9487,WAT,5.0
10708,Lost Creek I,CA,40.7576,-121.4145,WAT,1.1
10709,Ponderosa Bailey Creek,CA,40.4579,-121.8427,WAT,1.1
10718,Karen Avenue Wind Farm,CA,33.92194,-116.56222,WND,11.7
10728,Barker Lower,ME,44.0867,-70.2297,WAT,1.5
10735,Barber Dam,ID,43.561001,-116.121269,WAT,4.1
10737,Sprague Hydro,OR,42.50136,-120.98944,WAT,1.2
10740,Magic Dam Hydroelectric Project,ID,43.2547,-114.3569,WAT,3.0
10752,Lachute Hydro Lower,NY,43.849029,-73.420701,WAT,3.8
10753,Lachute Hydro Upper,NY,43.843869,-73.431207,WAT,5.2
10781,Koyle Ranch Hydroelectric Project,ID,42.945664,-114.795698,WAT,0.2
10787,Piedmont Hydro Power Project,SC,34.702021,-82.462102,WAT,1.0
10798,Fries Hydroelectric Project,VA,36.715103,-80.985621,WAT,2.0
10799,Pelzer Upper,SC,34.642371,-82.45444,WAT,2.0
10800,Pelzer Lower,SC,34.616522,-82.447913,WAT,3.3
10801,Ware Shoals Hydro Project,SC,34.404006,-82.233581,WAT,3.0
10806,Crystal Springs,ID,42.622513,-114.50093,WAT,2.3
10807,Dietrich Drop,ID,42.836046,-114.267952,WAT,4.8
10808,Low Line Rapids,ID,42.47711,-114.380118,WAT,2.8
10809,Rock Creek II,ID,42.620724,-114.531489,WAT,1.9
10817,Port Leyden Hydroelectric Project,NY,43.583611,-75.339167,WAT,0.5
10823,Deer Island Treatment Plant,MA,42.353333,-70.962778,WAT,1.0
10824,Oakdale Power Station,MA,42.38697,-71.802462,WAT,3.5
10825,Cosgrove Intake and Power Station,MA,42.40439,-71.687218,WAT,1.6
10848,Walden,NY,41.55998,-74.195154,WAT,1.2
10853,Center Falls,NY,43.096677,-73.460172,WAT,0.4
10872,Kings Falls Hydroelectric,NY,43.917267,-75.633822,WAT,1.6
10880,Bidwell Ditch Project,CA,40.8014,-121.4481,WAT,1.8
10881,Roaring Creek Water Power,CA,40.882061,-121.948353,WAT,2.0
10882,Hatchet Creek Project,CA,40.874144,-121.920428,WAT,6.8
10902,Victory Mills,NY,42.9197,-76.5477,WAT,1.7
10903,Lockport Powerhouse,IL,41.5697,-88.0789,WAT,8.0
50010,Glen Ferris Hydro,WV,38.1483,-81.2147,WAT,0.4
50011,Hawks Nest Hydro,WV,38.1478,-81.1753,WAT,25.5
50031,Mt Ida Hydroelectric,NY,42.721326,-73.680608,WAT,1.5
50034,Valley Falls Hydroelectric Facility,NY,42.9044,-73.5625,WAT,2.5
50036,New Martinsville Hannibal Hydro,WV,39.6672,-80.8642,WAT,18.7
50037,Rio Bravo Hydro Project,CA,35.43,-118.8222,WAT,7.0
50047,International Paper Jay Hydro,ME,44.503704,-70.220971,WAT,0.5
50061,San Diego State University,CA,32.778225,-117.070114,SUN,0.1
50064,University of California Santa Cruz,CA,36.9997,-122.0622,SUN,0.2
50076,Santa Felicia Dam,CA,34.461667,-118.7511,WAT,0.2
50079,Goodyear Lake Plant,NY,42.502473,-74.98356,WAT,0.8
50080,Otis Hydro,ME,44.477807,-70.200759,WAT,5.1
50081,International Paper Riley Hydro,ME,44.503431,-70.249137,WAT,1.1
50082,International Paper Livermore Hydro,ME,44.470511,-70.187333,WAT,1.1
50091,Sheep Creek Hydro,WA,48.947741,-117.795376,WAT,1.3
50093,Chateaugay High Falls Hydro,NY,44.909915,-74.085798,WAT,1.7
50103,China Mill Hydro,NH,43.128712,-71.459866,WAT,1.7
50123,Normanskill Hydro Project,NY,42.712356,-73.957324,WAT,1.2
50126,Ottauquechee Hydro,VT,43.5933,-72.3506,WAT,1.2
50128,Clear Lake Hydro Project,CA,38.923556,-122.56668,WAT,2.5
50129,Indian Valley Dam Hydro Project,CA,39.0788,-122.535556,WAT,1.4
50147,R E Badger Filtration Plant,CA,33.051,-117.175,WAT,1.4
50156,Bear Creek (CA),CA,40.534454,-121.959109,WAT,3.2
50166,International Paper Woronoco Mill,MA,42.163378,-72.827509,WAT,0.5
50175,Emporia,VA,36.696,-77.56,WAT,2.0
50176,Union Falls,NY,44.510739,-73.913079,WAT,1.3
50177,Blackstone/Tupperware,RI,42.014467,-71.5444,WAT,0.4
50178,Halifax (VA),VA,36.7817,-78.9236,WAT,0.8
50179,Box Canyon Dam,CA,41.2792,-122.3292,WAT,2.5
50180,Olsen,CA,40.63722,-121.92805,WAT,5.0
50190,Domtar Paper Company Rothschild,WI,44.8867,-89.6272,WAT,0.6
50206,Vallecito Hydroelectric,CO,37.377715,-107.578745,WAT,0.8
50218,Woodward Power Plant,CA,37.860653,-120.879153,WAT,2.8
50219,Frankenheimer Power Plant,CA,37.830378,-120.806972,WAT,5.3
50223,Nelson Creek,CA,41.028893,-121.892351,WAT,1.2
50228,Rocky Brook Hydroelectric,WA,47.7197,-122.9431,WAT,1.6
50233,San Dimas Wash Generating Station,CA,34.124171,-117.805091,WAT,1.0
50252,Sartell Dam,MN,45.617996,-94.200786,WAT,0.9
50261,New Lahontan,NV,39.463569,-119.065227,WAT,4.0
50267,Redlands Water & Power,CO,39.067347,-108.592791,WAT,1.4
50268,Hewittville Hydroelectric,NY,44.705167,-75.007933,WAT,3.0
50269,Unionville Hydro Project 2499 NY,NY,44.714518,-74.996581,WAT,3.0
50278,Worumbo Hydro Station,ME,43.994729,-70.061921,WAT,9.7
50280,Dahowa Hydro,NY,43.1033,-73.5369,WAT,10.5
50281,San Gorgonio Farms Wind Farm,CA,33.926111,-116.615,WND,31.0
50285,Lower Village Water Power Project,NH,43.374292,-72.347603,WAT,0.6
50311,Passaic Valley Water Commission,NJ,40.883345,-74.22999,WAT,0.6
50312,Pembroke Hydro,NH,43.130362,-71.453632,WAT,2.7
50315,Chasm Hydro Partnership,NY,44.9318,-74.1125,WAT,1.0
50322,Site 980 65,CA,37.056803,-119.899706,WAT,2.1
50323,Marco Ranch,ID,42.636558,-114.557764,WAT,0.3
50324,Newfound Hydroelectric,NH,43.59,-71.73295,WAT,0.7
50333,Gay Robinson,HI,21.9178,-159.6294,WAT,1.2
50350,Forks of Butte Hydro Project,CA,39.869284,-121.631865,WAT,14.5
50351,Rolfe Canal Hydro,NH,43.27456,-71.604027,WAT,4.3
50352,Nacimiento Hydro Project,CA,35.798576,-120.883331,WAT,4.0
50353,Penacook Lower Falls,NH,43.285761,-71.594962,WAT,4.6
50354,Newport Hydro,NY,43.1853,-75.0169,WAT,0.8
50360,Michell Butte Power Project,OR,43.771896,-117.155023,WAT,1.0
50361,Owyhee Dam Power Project,OR,43.641603,-117.24374,WAT,5.0
50362,Tunnel 1 Power Project,OR,43.642023,-117.232674,WAT,8.5
50375,East Portal Generator,CA,34.2619,-118.6242,WAT,1.2
50380,Upriver Dam Hydro Plant,WA,47.6822,-117.3319,WAT,2.0
50382,Twin Reservoirs,WA,46.088333,-118.254722,WAT,2.2
50384,Gregg Falls,NH,43.0168,-71.5679,WAT,2.2
50393,Friant Hydro Facility,CA,36.997694,-119.703451,WAT,18.4
50395,Georgia-Pacific Corp - Nekoosa Mill,WI,44.3142,-89.8964,WAT,0.8
50400,Sand Bar Power Plant,CA,38.1861,-120.15,WAT,16.2
50408,Park Mill,WI,45.1058,-87.6514,WAT,0.4
50409,Menominee Mill Marinette,MI,45.1069,-87.6378,WAT,0.4
50414,Penacook Upper Falls Hydro,NH,43.283208,-71.600827,WAT,3.4
50416,Tannery Island Power,NY,43.98,-75.6131,WAT,0.3
50421,Orchard Avenue 1,WA,46.596413,-120.677489,WAT,0.8
50423,Cowiche,WA,46.692628,-120.737194,WAT,1.7
50433,Ada Dam,MI,42.950642,-85.485944,WAT,1.4
50435,Sugarloaf Hydro Plant,CO,39.252672,-106.374808,WAT,2.5
50436,Cascade Dam (MI),MI,42.909408,-85.49888,WAT,1.6
50437,French Landing Dam,MI,42.214264,-83.440692,WAT,1.6
50439,Oconto Falls Lower,WI,44.8719,-88.1439,WAT,0.3
50447,S D Warren Westbrook,ME,43.684857,-70.353152,WAT,0.6
50461,Cheboygan,MI,45.637537,-84.481387,WAT,1.5
50476,Packaging of America Tomahawk Mill,WI,45.4431,-89.7342,WAT,1.0
50479,Georgia-Pacific Big Island,VA,37.534,-79.357,WAT,0.2
50492,Gas Utilization Facility,CA,32.679172,-117.246698,WAT,1.5
50512,Glen Park Hydroelectric Project,NY,44.000608,-75.961156,WAT,14.5
50513,Stillwater Reservoir Hydro,NY,43.897386,-75.04,WAT,1.8
50514,Fort Miller Hydroelectric Facility,NY,43.160868,-73.584076,WAT,2.5
50532,Victory Garden (Tehachapi),CA,35.0686,-118.3833,WND,1.5
50533,Painted Hills Wind Park,CA,33.9369,-116.6183,WND,46.8
50535,Mesa Wind Power LLC,CA,33.9461,-116.6769,WND,33.6
50536,Sky River Wind Energy Center,CA,35.2608,-118.2469,WND,60.2
50539,Boltonville Hydro Associates,VT,44.1706,-72.0994,WAT,0.5
50544,Port Townsend Paper,WA,48.0931,-122.7958,WAT,0.4
50545,Lawrence Hydroelectric Associates,MA,42.6994,-71.1653,WAT,7.4
50546,Bowman,CA,39.448352,-120.653417,WAT,3.6
50552,Salka Cabazon Wind,CA,33.914986,-116.71026,WND,38.9
50553,Edom Hills Project 1 LLC,CA,33.881667,-116.460278,WND,20.0
50614,Mosinee Mill,WI,44.7881,-89.6917,WAT,2.2
50636,Brainerd Public Utilities,MN,46.3758,-94.1817,WAT,0.6
50639,Sappi Cloquet Mill,MN,46.7243,-92.4298,WAT,1.8
50652,Lyonsdale Associates,NY,43.618874,-75.30546,WAT,1.5
50654,Steamboat Hills LP,NV,39.37,-119.766944,SUN,3.6
50688,Gardiner,ME,44.221796,-69.785675,WAT,1.0
50690,San Gorgonio Westwinds II LLC,CA,33.934,-116.5781,WND,43.4
50699,Pumpkin Hill,ME,45.1868,-68.4649,WAT,1.0
50700,Lilliwaup Falls Generating,WA,47.4706,-123.1153,WAT,0.2
50702,Salmon Falls,ME,43.226977,-70.810888,WAT,0.4
50704,Somersworth Lower Great Dam,NH,43.251111,-70.840833,WAT,1.3
50713,Huntington Falls,VT,44.0703,-73.1961,WAT,0.8
50718,GeoBon II,ID,42.954384,-114.462563,WAT,1.0
50741,Pontook Hydro Facility,NH,44.632842,-71.24742,WAT,3.5
50754,Oak Creek Energy Systems I,CA,35.043889,-118.276388,WND,3.5
50755,New Hogan Power Plant,CA,38.149582,-120.814942,WAT,2.0
50758,Pejepscot Hydroelectric Project,ME,43.957448,-70.024158,WAT,12.3
50759,West End Dam Hydroelectric Project,NY,43.98289,-75.620583,WAT,2.2
50765,Stillwater Facility,NV,39.547537,-118.555613,SUN,22.0
50768,Forestport,NY,43.442468,-75.215946,WAT,3.4
50820,East Winds Project,CA,33.890913,-116.541515,WND,3.0
50821,Mojave 16/17/18,CA,35.045,-118.2642,WND,88.5
50827,Twin Falls Hydro,WA,47.444554,-121.687812,WAT,12.0
50832,Chicopee Hydroelectric Station,MA,42.159595,-72.58279,WAT,1.2
50890,Ivy River Hydro,NC,35.771627,-82.61827,WAT,0.2
50891,El Dorado Hydro Elk Creek,ID,45.217784,-116.31577,WAT,2.6
50892,Rock Creek LP,CA,38.78342,-120.778506,WAT,1.5
50893,Allegheny No. 5 Hydro Station,PA,40.682875,-79.665298,WAT,4.6
50894,Allegheny No 6 Hydro Station,PA,40.716389,-79.577222,WAT,4.6
50895,Bypass,ID,42.560876,-114.057461,WAT,3.3
50896,S E Hazelton A,ID,42.586701,-114.067537,WAT,2.9
50897,Allegheny Hydro No 8,PA,40.896596,-79.478982,WAT,6.8
50898,Allegheny Hydro No 9,PA,40.955961,-79.550681,WAT,8.9
50917,Middle Fork Irrigation District,OR,45.480701,-121.59984,WAT,2.0
50933,Rhinelander Mill,WI,45.6394,-89.4205,WAT,0.5
50938,Galesville Project,OR,42.8489,-123.1778,WAT,0.8
50961,Slate Creek,CA,40.976859,-122.456251,WAT,4.2
50972,Marsh Valley Development,ID,42.625972,-112.149344,WAT,1.6
50980,Siphon Power Project,OR,44.033022,-121.3297,WAT,2.7
50987,Rock Creek I,ID,42.632483,-114.538769,WAT,2.1
50999,Aziscohos Hydroelectric Project,ME,44.9439,-70.9975,WAT,6.7
51033,West Delaware Tunnel Plant,NY,41.859601,-74.510259,WAT,7.5
51034,Little Falls Hydro,NY,43.040335,-74.850621,WAT,6.5
52036,Yough Hydro Power,PA,39.801637,-79.368214,WAT,6.1
52039,Quail Creek Hydro Plant #1,UT,37.1854,-113.3583,WAT,2.3
52049,Clifton Dam 3 Power Station,SC,34.9953,-81.8344,WAT,0.7
52054,Rapidan Hydro Facility,MN,44.092689,-94.108817,WAT,3.4
52057,Herkimer,NY,43.033577,-74.983391,WAT,0.4
52058,Ogdensburg,NY,44.704089,-75.487049,WAT,0.7
52068,Great Falls Hydro Project,NJ,40.915319,-74.180986,WAT,4.1
52142,Mojave 3/4/5,CA,35.0506,-118.2572,WND,75.0
52155,Lacomb Irrigation District,OR,44.597518,-122.685441,WAT,1.0
52162,85 A,CA,35.095797,-118.324772,WND,21.3
52163,85 B,CA,35.102577,-118.332533,WND,25.2
52166,Collins Facility,MA,42.1569,-72.4227,WAT,0.6
52171,Upper Barker,ME,44.08687,-70.229294,WAT,1.0
52173,Conemaugh Hydro Plant,PA,40.46439,-79.365703,WAT,7.5
52187,Falls Creek,OR,44.396815,-122.350246,WAT,4.1
54006,Broadwater Power Project,MT,46.12061,-111.407656,WAT,9.7
54017,San Gabriel Hydro Project,CA,34.204311,-117.855714,WAT,3.9
54103,Port Edwards Mill,WI,44.3364,-89.8672,WAT,0.4
54123,Mechanic Falls,ME,44.111236,-70.390673,WAT,1.0
54124,Pittsfield Hydro,ME,44.721371,-69.411992,WAT,0.4
54134,Great Lakes Hydro America - ME,ME,45.647179,-68.704368,WAT,1.3
54142,Hillcrest Pump Station,CO,39.6419,-104.9138,WAT,2.0
54148,Hydro Kennebec Project,ME,44.563031,-69.619162,WAT,7.7
54202,Upper Androscoggin,ME,44.087963,-70.212368,WAT,0.7
54249,Smith Falls Hydro Project,ID,48.959547,-116.557375,WAT,18.0
54251,Opal Springs Hydro,OR,44.49004,-121.298812,WAT,4.3
54261,Warm Springs Hydro Project,CA,38.722141,-123.011188,WAT,2.7
54267,Koma Kulshan,WA,48.680178,-121.723294,WAT,12.0
54283,Lee Creek Water Treatment Facility,AR,35.484488,-94.392858,WAT,1.3
54285,Hastings City Hydroelectric,MN,44.760249,-92.867743,WAT,2.2
54298,Coram Energy LLC (ECT),CA,35.0583,-118.3417,WND,7.5
54299,Coram Energy LLC,CA,35.075,-118.3417,WND,3.0
54300,Coram Energy LLC (4.5MW),CA,35.0583,-118.3083,WND,4.5
54302,Goodwin Hydroelectric,CT,41.988611,-73.0194,WAT,1.6
54306,Wilson Lake Hydroelectric Project,ID,42.628889,-114.174722,WAT,4.2
54308,Three Forks Water Power Project,CA,40.199822,-123.523145,WAT,1.3
54322,Sibley Mill,GA,33.487881,-81.99252,WAT,0.6
54340,Norway Point Hydropower Project,MI,45.1025,-83.5189,WAT,2.8
54341,Four Mile Hydropower Project,MI,45.0933,-83.5025,WAT,0.6
54342,Ninth Street Hydropower Project,MI,45.0717,-83.4381,WAT,0.4
54343,Terminus Hydroelectric Project,CA,36.4156,-119.0069,WAT,20.1
54355,Chace Mill Winooski One,VT,44.49,-73.1875,WAT,2.5
54384,EHC West Hopkinton,NH,43.1897,-71.7483,WAT,1.0
54385,Kinneytown New Old,CT,41.3686,-73.0856,WAT,0.8
54386,Little Wood Hydro Project,ID,43.425228,-114.025597,WAT,2.8
54387,Weeks Falls,WA,47.43348,-121.6483,WAT,4.3
54391,Alice Falls Hydro Project,NY,44.519153,-73.464752,WAT,1.5
54394,Dry Creek Project,ID,44.027444,-112.719439,WAT,3.6
54395,Stillwater Hydro Electric Project,NY,42.937465,-73.654393,WAT,1.7
54418,Rollinsford,NH,43.236111,-70.817222,WAT,0.7
54453,EDF Renewable Windfarm V Inc,CA,38.1167,-121.8333,WND,15.5
54454,San Gorgonio Windplant WPP1993,CA,33.918395,-116.573906,WND,49.5
54462,Graniteville Enterprise Division,GA,33.477027,-81.982732,WAT,0.6
54471,Mascoma Hydro,NH,43.63369,-72.31744,WAT,0.5
54514,Blind Canyon Hydro,ID,42.69984,-114.822603,WAT,1.3
54524,Horseshoe Bend Hydroelectric Co,ID,43.904085,-116.244193,WAT,4.7
54525,Kankakee Hydro Facility,IL,41.1128,-87.8681,WAT,0.4
54548,Longfalls Facility,NY,43.980806,-75.624677,WAT,3.3
54554,Spicer Meadow Project,CA,38.3914,-120.0008,WAT,2.7
54555,Collierville Powerhouse,CA,38.144636,-120.380497,WAT,126.5
54558,Hazelton B Hydro,ID,42.6051,-114.093,WAT,3.8
54569,Bayville Central Facility,NJ,39.909424,-74.178041,SUN,0.2
54572,Lochmere Hydroelectric Plant,NH,43.473238,-71.533623,WAT,0.3
54573,Wappinger Falls Hydroelectric,NY,41.598395,-73.922036,WAT,1.0
54580,Curtis Palmer Hydroelectric,NY,43.2469,-73.8281,WAT,2.6
54639,Berlin Gorham,NH,44.3889,-71.1645,WAT,2.4
54647,TPC Windfarms LLC,CA,35.05,-118.2572,WND,28.7
54654,Kekawaka Power House,CA,40.0941,-123.508983,WAT,4.9
54655,Schoolfield Dam,VA,36.576778,-79.432503,WAT,1.5
54665,Steamboat II,NV,39.395603,-119.746762,SUN,5.5
54666,Steamboat III,NV,39.394444,-119.7475,SUN,5.5
54668,Falls River Hydro,ID,44.0597,-111.3535,WAT,4.5
54674,Ford Hydro LP,ID,46.383828,-115.949338,WAT,0.4
54675,Spartanburg Water System,SC,35.1103,-81.9675,WAT,0.5
54678,Sidney A Murray Jr Hydroelectric,LA,31.088011,-91.618853,WAT,24.0
54679,Boulder City Lakewood Hydro,CO,40.0111,-105.3347,WAT,3.5
54680,Boulder City Betasso Hydro Plant,CO,40.0111,-105.3347,WAT,3.0
54686,Difwind Farms Ltd VI,CA,35.0506,-118.1714,WND,27.1
54688,Thundermist Hydro,RI,41.99897,-71.517434,WAT,1.2
54691,Lower Beaver Falls Project,NY,43.884444,-75.430556,WAT,0.5
54721,Warm Springs Power Enterprises,OR,44.724242,-121.247729,WAT,19.6
54729,Taylor Draw Hydroelectric Facility,CO,40.106269,-108.711161,WAT,2.3
54750,Coram Tehachapi,CA,35.0663,-118.339444,WND,6.5
54753,Lateral 10 Ventures,ID,42.647376,-114.89031,WAT,2.4
54772,South Glens Falls Hydroelectric,NY,43.304413,-73.63993,WAT,6.9
54793,Storm Lake 1,IA,42.6878,-95.405,WND,0.7
54801,Avalon Hydropower,NC,36.423715,-79.952494,WAT,0.8
54812,Mile 28 Water Power Project,ID,42.740139,-114.161173,WAT,0.7
54827,Wailuku River Hydroelectric,HI,19.712994,-155.14857,WAT,5.2
54860,Black Creek,WA,47.549652,-121.710517,WAT,3.7
54865,Phoenix Hydro Project,NY,43.227058,-76.302137,WAT,1.6
54878,Dunn Paper,NY,44.336358,-75.50274,WAT,0.4
54885,Kimberly Mill,WI,44.2769,-88.3344,WAT,0.7
54894,Narrows (NC),NC,35.4189,-80.0917,WAT,24.7
54895,Falls Hydro,NC,35.3944,-80.0753,WAT,9.0
54896,High Rock Hydro,NC,35.6008,-80.2339,WAT,11.0
54897,Tuckertown Hydro,NC,35.4856,-80.1758,WAT,14.0
54898,Santeetlah,NC,35.4475,-83.863889,WAT,22.5
54899,Cheoah,NC,35.4478,-83.9383,WAT,27.5
54900,Calderwood,TN,35.4923,-83.9806,WAT,52.2
54901,Chilhowee,TN,35.5453,-84.0503,WAT,16.6
54909,Tehachapi Wind Resource II,CA,35.1061,-118.3114,WND,8.3
54931,Ridgetop,CA,35.074,-118.3153,WND,46.8
54953,Hudson Falls Hydroelectric Project,NY,43.2958,-73.5956,WAT,22.0
54969,Dixon Hydroelectric Dam,IL,41.845306,-89.481286,WAT,0.6
54979,Big Spring Wind Power Facility,TX,32.2075,-101.388333,WND,34.3
55009,Montgomery Creek Hydro,CA,40.846806,-121.956446,WAT,2.6
55125,Vansycle,OR,45.936157,-118.65999,WND,25.0
55208,Lake Benton I,MN,44.2917,-96.375,WND,107.2
55265,Lake Benton II,MN,44.129369,-96.116971,WND,100.2
55287,Storm Lake II,IA,42.8417,-95.405,WND,80.2
55288,Medway Hydro,ME,45.6072,-68.5453,WAT,0.8
55339,Phoenix Wind Power LLC,CA,33.916667,-116.55,WND,2.1
55342,Woodstock Windfarm,MN,43.985833,-96.078611,WND,9.2
55353,Lakota Ridge LLC,MN,44.39956,-96.428367,WND,11.2
55354,Shaokatan Hills LLC,MN,44.421711,-96.434694,WND,11.8
55560,FPL Energy Vansycle LLC (WA),WA,46.06,-118.917,WND,176.9
55561,Tsar Nicholas LLC,MN,44.42,-96.4347,WND,1.9
55562,Sun River LLC,MN,44.4289,-96.4358,WND,1.9
55563,Julia Hills LLC,MN,44.4231,-96.4458,WND,1.9
55564,Jessica Mills LLC,MN,44.4278,-96.43,WND,1.9
55565,Jack River LLC,MN,44.4233,-96.4411,WND,1.9
55566,Autumn Hills LLC,MN,44.4131,-96.4325,WND,1.9
55567,Winters Spawn LLC,MN,44.2081,-96.1989,WND,1.9
55568,Twin Lake Hills LLC,MN,44.2258,-96.2789,WND,1.9
55569,Spartan Hills LLC,MN,44.2358,-96.2383,WND,1.9
55570,Soliloquoy Ridge LLC,MN,44.2364,-96.2331,WND,1.9
55571,Ruthton Ridge LLC,MN,44.2128,-96.2131,WND,1.9
55572,Hope Creek LLC,MN,44.2275,-96.2192,WND,1.9
55573,Hadley Ridge LLC,MN,44.2253,-96.235,WND,1.9
55574,Florence Hills LLC,MN,44.2297,-96.225,WND,1.9
55576,Agassiz Beach LLC,MN,47.0053,-96.4356,WND,1.9
55579,Llano Estacado Wind Ranch,TX,35.4677,-101.2533,WND,80.0
55581,King Mountain Wind Ranch 1,TX,31.2092,-102.2417,WND,278.0
55684,Flambeau Crowley Rapids Project,WI,45.8683,-90.5844,WAT,1.0
55685,Flambeau Lower Project,WI,45.913526,-90.44746,WAT,0.4
55719,Mountain View I & II,CA,33.9211,-116.5642,WND,70.9
55734,Gray County Wind Energy,KS,37.613256,-100.378197,WND,112.2
55739,Condon Windpower LLC,OR,45.2766,-120.2794,WND,24.6
55741,Ridge Crest Wind Partners,CO,40.945911,-103.162028,WND,29.7
55742,Montfort Wind Energy Center,WI,42.9625,-90.386667,WND,30.0
55747,NWP Indian Mesa Wind Farm,TX,30.931467,-102.201433,WND,82.5
55769,Madison Windpower LLC,NY,42.894722,-75.451666,WND,11.5
55782,Noble Ridge LLC,MN,43.754739,-95.853447,WND,1.5
55790,Fenner Wind,NY,42.988989,-75.762536,WND,30.0
55795,Woodward Mountain II,TX,30.9514,-102.414067,WND,78.0
55796,Woodward Mountain I,TX,30.9514,-102.414067,WND,82.0
55803,Somerset Windpower LLC,PA,39.979167,-79.012778,WND,9.0
55804,"Old Gold Energy Center, LLC",IA,43.3833,-93.4167,WND,80.0
55805,Mill Run Windpower LLC,PA,39.913408,-79.393644,WND,15.0
55809,Kas Brothers Windfarm,MN,44.0119,-96.1125,WND,1.5
55816,Hawkeye Power Partners LLC,IA,43.047222,-93.4775,WND,42.0
55860,Quinebaug Lower Project,CT,41.798656,-71.886759,WAT,0.3
55864,Kaheka Hydro,HI,20.8886,-156.3569,WAT,1.5
55871,Klondike Wind Power,OR,45.5563,-120.5507,WND,24.5
55931,Boulder City Silver Lake Hydro,CO,39.991311,-105.50003,WAT,3.3
55968,Trent Wind Farm,TX,32.4301,-100.235652,WND,152.0
55986,Mountaineer Wind Energy Center,WV,39.1828,-79.5372,WND,66.0
55989,FPL Energy Vansycle LLC (OR),OR,46.01279,-118.816246,WND,122.8
55991,Brady,NV,39.796032,-119.010013,SUN,8.0
55992,Desert Sky,TX,30.9178,-102.0867,WND,167.7
55995,Minot Wind Project,ND,48.021271,-101.280517,WND,4.5
56001,Waymart Wind,PA,41.5533,-75.4542,WND,64.5
56002,Minwind,MN,43.5564,-96.303611,WND,3.8
56010,Hancock County Wind Energy Center,IA,43.052758,-93.629956,WND,98.0
56011,Cabazon Wind Partners,CA,33.9172,-116.735,WND,41.0
56012,Whitewater Hill Wind Partners,CA,33.925,-116.617778,WND,61.5
56052,"Meyersdale Windpower, LLC",PA,39.790739,-79.002047,WND,30.0
56054,G McNeilus Wind Farm Dodge Center,MN,43.978486,-92.851078,WND,32.0
56075,High Winds LLC,CA,38.1381,-121.8053,WND,145.8
56081,Blue Canyon Windpower,OK,34.850781,-98.577311,WND,74.3
56092,South Dakota Wind Energy Cente,SD,44.5492,-99.5,WND,40.5
56093,TransAlta Wyoming Wind,WY,41.2874,-110.5556,WND,144.0
56094,Oklahoma Wind Energy Center,OK,36.603967,-99.340047,WND,51.0
56097,New Mexico Wind Energy Center,NM,34.63566,-104.04733,WND,204.0
56099,FPL Energy North Dakota Wind I/II,ND,46.327169,-98.898356,WND,61.5
56106,Kimball Wind,NE,41.2736,-103.6983,WND,30.0
56111,Brazos Wind Farm,TX,32.94793,-101.147784,WND,182.4
56112,Mountain View III,CA,33.9141,-116.5914,WND,22.4
56125,Springville Hydroelectric,CA,34.2253,-119.0858,WAT,1.0
56160,"Mendota Hills, LLC",IL,41.7194,-89.0492,WND,76.2
56162,Ainsworth Wind,NE,42.4489,-99.8917,WND,59.4
56172,Flying Cloud Power Partners LLC,IA,43.3897,-95.2997,WND,43.5
56173,Colorado Green Holdings LLC,CO,37.7033,-102.6231,WND,162.0
56174,Moraine Wind LLC,MN,44.0667,-96.0667,WND,51.0
56195,Combine Hills I,OR,45.943,-118.591,WND,43.0
56199,TG Windfarm LLC,MN,43.9897,-96.2236,WND,2.0
56200,CG Windfarm LLC,MN,43.9931,-96.2186,WND,2.0
56201,Bisson Windfarm LLC,MN,43.984444,-96.219444,WND,2.0
56202,Tofteland Windfarm LLC,MN,43.980278,-96.223333,WND,2.0
56203,Westridge Windfarm LLC,MN,43.988611,-96.215556,WND,2.0
56204,Fey Windfarm LLC,MN,44.0364,-96.0736,WND,2.0
56205,Windcurrent Farms LLC,MN,44.0236,-96.0789,WND,2.0
56206,K-Brink Windfarm LLC,MN,44.0197,-96.1183,WND,2.0
56207,DL Windy Acres LLC,MN,43.651389,-95.368611,WND,2.0
56208,S&P Windfarm LLC,MN,43.651389,-95.3825,WND,2.0
56209,Boeve Windfarm LLC,MN,44.05,-96.0933,WND,2.0
56210,B&K Energy Systems LLC,MN,43.651389,-95.3755,WND,2.0
56211,Sweetwater Wind 1 LLC,TX,32.3606,-100.3389,WND,37.5
56212,Sweetwater Wind 2 LLC,TX,32.3472,-100.3703,WND,98.8
56215,Allendorf,IA,43.4,-95.6333,WND,1.2
56224,TS Power Plant,NV,40.7461,-116.5297,SUN,100.0
56226,Bowling Green Wind,OH,41.3786,-83.7383,WND,1.8
56228,Prescott Airport,AZ,34.6584,-112.4008,SUN,3.0
56240,Buffalo Gap Wind Farm,TX,32.311556,-100.061589,WND,120.6
56251,Intrepid,IA,42.5539,-95.3283,WND,160.5
56252,Century,IA,42.5644,-93.6369,WND,150.0
56255,Hopkins Ridge Wind,WA,46.4211,-117.8331,WND,149.4
56265,South Fork,AK,55.563333,-132.891111,WAT,2.0
56270,Callahan Divide Wind Energy Center,TX,32.303889,-100.021667,WND,114.0
56271,Diablo Winds LLC,CA,37.763653,-121.614392,WND,18.0
56273,Weatherford Wind Energy Center,OK,35.5094,-98.7346,WND,106.5
56275,Helzel & Schwarzhoff 86,CA,35.0925,-118.3952,WND,2.4
56276,ZCO,CA,35.0772,-118.3811,WND,1.6
56290,Maple Ridge Wind Farm,NY,43.7853,-75.5753,WND,137.0
56291,Horse Hollow Wind Energy Center,TX,32.214024,-100.05712,WND,213.0
56293,Caprock Wind Farm,NM,34.980556,-103.353889,WND,80.0
56295,Kumeyaay Wind,CA,32.705556,-116.3425,WND,50.0
56296,Trimont Area Wind Farm,MN,43.7938,-94.8499,WND,100.5
56297,Crescent Ridge,IL,41.25,-89.5708,WND,53.0
56299,Wind Park Bear Creek,PA,41.235278,-75.753056,WND,24.0
56300,Jersey-Atlantic Wind Farm,NJ,39.382222,-74.4475,WND,7.5
56301,Wolverine Creek,ID,43.4195,-111.8294,WND,64.5
56302,Oasis Wind,CA,35.06094,-118.292406,WND,60.3
56303,Elk River Wind,KS,37.5797,-96.5503,WND,150.0
56304,San Juan Mesa Wind Project LLC,NM,33.9716,-103.8604,WND,120.0
56307,Adams Wind Farm,MN,43.554778,-92.724139,WND,13.5
56308,Fossil Gulch,ID,42.858056,-114.949444,WND,10.5
56311,Sweetwater Wind 3 LLC,TX,32.290833,-100.4219,WND,135.0
56313,Coleman Falls,VA,37.5035,-79.3006,WAT,0.5
56314,Holcomb Rock,VA,37.5035,-79.3006,WAT,0.6
56320,Spring Canyon,CO,40.983,-102.9647,WND,60.0
56322,Wild Horse,WA,47.036269,-120.206494,WND,228.6
56333,Gauley River Power Partners,WV,38.21921,-80.89061,WAT,40.0
56335,Blue Canyon Windpower II,OK,34.8661,-98.6056,WND,151.4
56336,Aragonne Wind LLC,NM,34.8147,-105.0108,WND,90.0
56337,Sweetwater Wind 4 LLC,TX,32.3122,-100.5303,WND,241.0
56338,High Trail Wind Farm LLC,IL,40.4792,-88.7989,WND,210.9
56347,Cedar Ridge,WI,43.692647,-88.329742,WND,67.7
56351,Spearville,KS,37.8641,-99.7528,WND,100.5
56355,Whispering Willow Wind Farm - East,IA,42.630513,-93.206389,WND,199.7
56357,FPL Energy Burleigh County Wind,ND,47.1167,-100.7333,WND,18.0
56359,Klondike Windpower II,OR,45.571,-120.593,WND,75.0
56360,Leaning Juniper,OR,45.652457,-120.209783,WND,110.4
56361,Big Horn Wind Project,WA,45.8877,-120.2896,WND,199.0
56362,Shiloh I Wind Project,CA,38.12,-121.85,WND,150.0
56369,Casselman Wind Power Project,PA,39.85,-79.138,WND,34.5
56371,Cedar Creek Wind,CO,40.8944,-104.0206,WND,221.0
56372,Sweetwater Wind 5,TX,32.236944,-100.4833,WND,80.5
56376,Pike County Wind Power,IL,39.6189,-90.8461,WND,1.7
56377,Judith Gap Wind Energy Center,MT,46.5725,-109.7531,WND,135.0
56378,Pakini Nui Wind Farm,HI,18.9742,-155.6914,WND,21.0
56379,Victory Wind Farm,IA,42.1169,-95.1292,WND,105.0
56380,Centennial Wind Farm,OK,36.637733,-99.601869,WND,120.0
56383,Northern Iowa Windpower II,IA,43.3608,-93.2978,WND,80.0
56386,Top of Iowa Windfarm III,IA,43.3597,-93.3208,WND,29.7
56391,Blue Sky Green Field Wind Project,WI,43.8794,-88.2708,WND,145.2
56392,FPL Energy Oliver Wind I LLC,ND,47.152847,-101.197716,WND,50.6
56394,Forest Creek Wind Farm LLC,TX,32.039,-101.22,WND,124.2
56395,Mesquite Wind Power LLC,TX,32.6256,-99.4928,WND,200.0
56399,Lempster Wind LLC,NH,43.233,-72.1455,WND,24.0
56405,Nevada Solar One,NV,35.799798,-114.98173,SUN,75.7
56408,Agriwind,IL,41.3017,-89.6236,WND,8.4
56409,Stahl Wind Energy,MN,44.0256,-96.4303,WND,1.7
56410,Carstensen Wind,MN,44.0247,-96.4369,WND,1.7
56411,Northern Lights Wind LLC,MN,44.015,-96.4367,WND,1.7
56412,Lucky Wind,MN,44.0211,-96.4406,WND,1.7
56413,Greenback Energy,MN,44.0208,-96.4331,WND,1.7
56414,Redwood Falls Wind,MN,44.502778,-95.175,WND,1.7
56415,Fairmont Wind,MN,43.575,-94.446667,WND,1.0
56416,Michigan Wind 1,MI,43.7092,-82.9633,WND,69.0
56424,Mower County Wind Energy Center,MN,43.61407,-92.59882,WND,98.9
56432,Wildorado Wind LLC,TX,35.291944,-102.303056,WND,161.0
56433,Pine Tree Wind Power Project,CA,35.248006,-118.175356,WND,135.0
56434,Burley Butte Windpark,ID,42.490341,-113.926605,WND,21.3
56435,Golden Valley Wind Park LLC,ID,42.436804,-113.925536,WND,12.0
56437,Milner Dam Wind Park LLC,ID,42.460629,-114.017297,WND,19.5
56439,Oregon Trail Wind Park,ID,42.840556,-114.989722,WND,13.5
56440,Pilgrim Stage Wind Park,ID,42.7975,-114.998611,WND,10.5
56441,Salmon Falls Wind Park,ID,42.681944,-114.989167,WND,21.0
56442,Thousand Springs Wind Park,ID,42.870278,-114.967778,WND,12.0
56443,Tuana Gulch Wind Park,ID,42.836854,-114.969342,WND,10.5
56446,Buena Vista Energy LLC,CA,37.805,-121.6672,WND,38.0
56447,Hawi Wind Farm,HI,20.257252,-155.850382,WND,10.6
56448,Mars Hill Wind Farm Project,ME,46.54422,-67.8111,WND,42.0
56449,Kaheawa Pastures Wind Farm Hybrid,HI,20.81421,-156.551,WND,30.0
56450,GSG LLC,IL,41.643611,-89.173056,WND,80.0
56451,Allegheny Ridge Wind Farm,PA,40.383889,-78.579444,WND,80.0
56457,Post Wind Farm LP,TX,32.92544,-101.219397,WND,84.0
56459,MinnDakota Wind LLC,MN,44.2667,-96.3444,WND,150.0
56460,Twin Buttes Wind Project,CO,37.6735,-102.8622,WND,75.0
56466,Marengo Wind Plant,WA,46.3747,-117.7772,WND,156.0
56468,Klondike Windpower III,OR,45.5836,-120.5042,WND,221.0
56470,Locust Ridge,PA,40.855,-76.1292,WND,26.0
56479,Sand Bluff Wind Farm,TX,31.991442,-101.302637,WND,89.5
56481,SunE Alamosa,CO,37.690304,-105.880501,SUN,1.0
56483,Post Oak Wind LLC,TX,32.5144,-99.6564,WND,200.0
56484,Buffalo Gap 2 Wind Farm,TX,32.318221,-100.176986,WND,232.5
56485,Biglow Canyon Wind Farm,OR,45.653745,-120.603414,WND,125.4
56487,White Creek Wind Farm,WA,45.815467,-120.341883,WND,204.0
56488,Smoky Hills Wind Project Phase I,KS,38.879936,-98.160159,WND,100.8
56494,Prairie Star Wind Farm,MN,43.6861,-92.6272,WND,100.7
56495,NedPower Mount Storm,WV,39.2175,-79.2094,WND,164.0
56498,Mora Drop Hydroelectric Project,ID,43.460012,-116.47254,WAT,1.7
56499,Tiber Dam Hydroelectric Plant,MT,48.318,-111.1018,WAT,7.5
56500,Western 102 Power Plant,NV,39.5603,-119.5108,SUN,1.0
56501,Pomeroy Wind Farm,IA,42.5842,-94.7467,WND,123.0
56506,Scurry County Wind LP,TX,32.7204,-100.9952,WND,130.5
56536,Cow Branch,MO,40.4535,-95.4683,WND,50.4
56537,Conception,MO,40.2572,-94.6722,WND,50.4
56538,Loess Hills,MO,40.4144,-95.54,WND,5.0
56540,Galena 2 Geothermal Power Plant,NV,39.373189,-119.764507,SUN,3.0
56542,Kasidaya Creek Hydro,AK,59.4072,-135.3408,WAT,3.0
56543,Eastridge Wind Project,MN,43.9358,-95.9222,WND,10.4
56544,Windom Wind Project,MN,43.9578,-95.1306,WND,15.6
56555,Bluegrass Ridge,MO,40.1006,-94.4869,WND,56.7
56560,Porterhouse Wind (4) LLC,TX,36.4144,-101.3864,WND,79.8
56561,Filet Wind (5) LLC,TX,36.4453,-101.8761,WND,10.0
56562,Tenderloin Wind (6) LLC,TX,36.4669,-101.8222,WND,10.0
56563,Peetz Table Wind Energy,CO,40.986,-103.436,WND,199.5
56568,Nellis Air Force Base Solar Array,NV,36.260278,-115.0544,SUN,4.6
56570,Terra-Gen VG Wind LLC,CA,35.1161,-118.3789,WND,7.4
56573,FPL Energy Oliver Wind II LLC,ND,47.152847,-101.197716,WND,48.0
56575,Steel Winds Wind Farm,NY,42.8167,-78.8675,WND,20.0
56577,Shane's Wind Machine,MN,44.1508,-96.1361,WND,1.3
56580,Blue Breezes LLC,MN,43.6558,-94.1536,WND,1.3
56581,Blue Breezes II LLC,MN,43.6558,-94.1564,WND,1.3
56586,Sunset Breeze LLC,MN,43.5811,-95.78,WND,1.3
56587,Minnesota Breeze LLC,MN,43.5833,-95.7781,WND,1.3
56588,G Flow Wind LLC,MN,43.586111,-95.776111,WND,1.3
56589,Wolf Wind Enterprises LLC,MN,43.581111,-95.775833,WND,1.3
56590,Green Acres Breeze LLC,MN,43.586111,-95.780278,WND,1.3
56591,Horseshoe Bend Wind Park,MT,47.4983,-111.4392,WND,9.0
56592,Champion Wind Farm LLC,TX,32.3983,-100.6481,WND,126.5
56593,Roscoe Wind Farm LLC,TX,32.4694,-100.6664,WND,209.0
56594,Munnsville Wind Farm LLC,NY,42.9086,-75.5697,WND,34.5
56605,"Langdon Renewables, LLC",ND,48.63,-98.315,WND,118.5
56607,Prairie Winds ND1,ND,47.933621,-101.269189,WND,115.5
56608,Prairie Winds SD1,SD,43.886389,-98.7875,WND,150.0
56613,Logan Wind Energy,CO,40.941,-103.259,WND,201.0
56614,Old Trail Wind Farm,IL,40.4792,-88.7989,WND,213.8
56617,Fenton Wind Farm,MN,43.852778,-96.018333,WND,205.5
56618,Clinton,NY,44.8914,-74.0061,WND,100.5
56619,Ellenburg,NY,44.8914,-74.0061,WND,81.0
56620,Bliss (NY),NY,42.5367,-78.3047,WND,100.5
56621,Sleeping Bear LLC,OK,36.640278,-99.500556,WND,94.5
56622,Providence Heights Wind LLC,IL,41.2294,-89.5572,WND,72.0
56623,Elkhorn Valley Wind Farm,OR,45.085221,-117.816273,WND,100.7
56626,"Ewington Energy Systems, LLC",MN,43.6181,-95.4172,WND,22.5
56630,Taconite Ridge 1 Wind Energy Center,MN,47.5747,-92.5917,WND,25.0
56633,Dutch Hill Wind Project,NY,42.5456,-77.4967,WND,37.5
56634,Cohocton Wind Project,NY,42.45,-77.52,WND,87.5
56635,Harvest,MI,43.83,-83.2064,WND,52.8
56636,Mountain Home,ID,43.0272,-115.4656,WND,21.0
56637,Bennett Creek Windfarm LLC - Mountain Home,ID,43.0536,-115.4803,WND,21.0
56638,Buffalo Gap 3 Wind Farm,TX,32.2878,-100.1,WND,170.2
56640,Camp Grove Wind Farm,IL,41.090583,-89.639811,WND,150.0
56644,Stanton Wind Energy LLC,TX,32.2353,-101.8367,WND,120.0
56645,Osceola Windpower LLC,IA,43.4303,-95.4167,WND,98.2
56647,Butler Ridge,WI,43.400278,-88.481111,WND,54.0
56648,Majestic 1 Wind Farm,TX,35.3919,-101.53,WND,79.5
56649,South Trent Wind Farm,TX,32.4081,-100.1286,WND,101.2
56650,Wessington Springs,SD,44.0025,-98.590833,WND,51.0
56651,North Allegheny Windpower Project,PA,40.4381,-78.5436,WND,75.0
56654,Hatchet Ridge Wind Project,CA,40.8981,-121.8036,WND,101.2
56659,Michigan Wind 2,MI,43.663056,-82.746944,WND,90.0
56661,Pattern Gulf Wind,TX,27.0011,-97.5994,WND,283.2
56665,Dempsey Ridge Wind Farm,OK,35.529778,-99.814456,WND,132.0
56666,Goodnoe Hills,WA,45.781825,-120.521151,WND,103.4
56667,Lanai Solar-Electric Plant,HI,20.7667,-156.9233,SUN,0.1
56669,Tatanka Wind Power LLC,ND,45.959325,-98.946325,WND,180.0
56670,Velva Windfarm LLC,ND,48.083625,-100.9215,WND,11.9
56673,Whirlwind Energy Center,TX,34.105,-101.0986,WND,59.8
56677,Charles City Wind Farm,IA,43.0003,-92.62,WND,80.0
56679,Benton County Wind Farm,IN,40.695,-87.4886,WND,130.5
56694,Russell D Smith,WA,46.7392,-119.1122,WAT,6.1
56695,Summer Falls Power Plant,WA,47.5025,-119.2917,WAT,46.0
56696,Eltopia Branch Canal 4.6,WA,46.378381,-119.254522,WAT,2.2
56697,Potholes East Canal 66.0,WA,46.378469,-119.254443,WAT,2.3
56698,Main Canal Headworks,WA,47.6164,-119.2992,WAT,26.8
56699,Forward Windpower LLC,PA,40.0853,-78.8633,WND,29.4
56700,Lookout Windpower LLC,PA,39.8794,-78.9183,WND,37.8
56702,Tuolumne Wind Project,WA,45.8797,-120.8072,WND,136.3
56703,Lyons Falls Hydroelectric,NY,43.61863,-75.358577,WAT,1.0
56704,Gouldtown,NY,43.612619,-75.339072,WAT,2.0
56705,Kosterville,NY,43.614218,-75.332705,WAT,0.5
56750,Jeffers Wind 20 LLC,MN,44.057778,-95.2525,WND,50.0
56751,Spanish Fork Wind Park 2 LLC,UT,40.071389,-111.582222,WND,18.9
56752,Mountain Wind Power LLC,WY,41.288056,-110.480741,WND,61.0
56753,Mountain Wind Power II LLC,WY,41.263889,-110.544444,WND,80.0
56754,Goat Wind LP,TX,31.951944,-100.791389,WND,80.0
56755,Odin Wind Farm LLC,MN,43.8953,-94.9142,WND,20.0
56763,Capricorn Ridge Wind LLC,TX,31.951958,-101.018936,WND,149.5
56764,Winnebago Wind Power Project,IA,43.315,-93.77,WND,20.0
56765,Barton Windpower LLC,IA,43.393,-93.091,WND,80.0
56767,Farmers City Wind LLC,MO,40.575,-95.5228,WND,146.0
56768,CalRenew-1,CA,36.7575,-120.3658,SUN,5.0
56770,Locust Ridge II LLC,PA,40.8411,-76.1547,WND,102.0
56771,Silver Star I Wind Power Project,TX,32.338659,-98.476051,WND,52.8
56773,McAdoo Wind Energy LLC,TX,33.752201,-100.967402,WND,150.0
56774,Turkey Track Wind Energy LLC,TX,32.1981,-100.2686,WND,169.5
56775,Scurry County Wind II,TX,32.718056,-100.793333,WND,120.0
56776,Gunsight Mountain Wind Energy LLC,TX,32.240278,-101.473611,WND,120.0
56777,Fowler Ridge Wind Farm LLC,IN,40.583889,-87.3336,WND,101.3
56782,Diamond Willow Wind Facility,MT,46.2753,-104.1836,WND,30.0
56783,Elbow Creek Wind Project LLC,TX,32.1408,-101.3986,WND,121.9
56784,Cloud County Wind Farm,KS,39.4375,-97.6644,WND,105.0
56789,Pebble Springs Wind LLC,OR,45.7119,-120.125,WND,98.7
56790,Hay Canyon Wind Power LLC,OR,45.52,-120.5744,WND,100.8
56791,Dillon Wind LLC,CA,33.9393,-116.5527,WND,45.0
56792,Buffalo Ridge I LLC,SD,44.4328,-96.4779,WND,50.4
56793,Elm Creek Wind LLC,MN,43.7542,-94.9497,WND,99.0
56794,Moraine II Wind LLC,MN,44.1238,-96.0784,WND,49.5
56795,Penascal Wind Power LLC,TX,27.022112,-97.498478,WND,201.6
56796,South Chestnut LLC,PA,39.7513,-79.7271,WND,50.4
56797,Pioneer Prairie Wind Farm,IA,43.4839,-92.6131,WND,300.0
56800,Hull Wind II,MA,42.261111,-70.856389,WND,1.8
56804,Red Hills Wind Project LLC,OK,35.535,-99.3828,WND,123.0
56805,EcoGrove Wind LLC,IL,42.451481,-89.878428,WND,100.5
56809,Carroll Wind Farm,IA,42.1622,-94.93,WND,159.1
56810,Adair Wind Farm,IA,41.4236,-94.665,WND,174.8
56811,Walnut Wind Farm,IA,41.4517,-95.2383,WND,165.2
56812,Solana Generating Station,AZ,32.922294,-112.95594,SUN,140.0
56813,CSU Fresno Solar Project,CA,36.809841,-119.741665,SUN,0.5
56814,ELACC Photovoltaic Power Facility,CA,34.040278,-118.148056,SUN,0.5
56815,Denver Int Airport,CO,39.902984,-104.659252,SUN,1.9
56818,Central Plains Wind Farm,KS,38.503167,-101.161472,WND,99.0
56819,Flat Ridge Wind Farm,KS,37.369167,-98.460278,WND,50.0
56823,Hackberry Wind Farm,TX,32.7683,-99.4228,WND,165.6
56824,Marshall Wind 2 LLC,MN,44.3236,-95.8222,WND,4.2
56825,Marshall Wind 3 LLC,MN,44.3211,-95.7942,WND,4.2
56826,Marshall Wind 4 LLC,MN,44.3361,-95.8242,WND,4.2
56827,Marshall Wind 5 LLC,MN,44.3303,-95.8344,WND,2.1
56828,Marshall Wind 6 LLC,MN,44.3308,-95.8297,WND,2.1
56829,Kibby Wind Facility,ME,45.3853,-70.5258,WND,66.0
56831,Crane Creek Wind Energy Center,IA,43.397778,-92.473611,WND,99.0
56835,Ribeye Wind (11) LLC,TX,35.8119,-101.9789,WND,10.0
56836,T-Bone Wind (10) LLC,TX,35.8081,-101.9986,WND,8.8
56837,Tri-Tip Wind (9) LLC,TX,35.9614,-101.8033,WND,10.0
56838,Brisket Wind (8) LLC,TX,36.0075,-101.8614,WND,10.0
56839,Flat Iron Wind (7) LLC,TX,36.0264,-101.9,WND,10.0
56840,Marshall Wind 1 LLC,MN,44.3253,-95.8142,WND,2.1
56841,Glenrock,WY,43.0181,-105.835278,WND,119.6
56842,Rolling Hills,WY,43.0572,-105.8543,WND,115.8
56843,Seven Mile Hill,WY,41.9203,-106.3758,WND,122.1
56854,Wheat Field Wind Power Project,OR,45.675804,-120.31832,WND,102.9
56855,Arlington Wind Power Project,OR,45.7167,-120.2008,WND,102.9
56856,Rail Splitter Wind Farm,IL,40.3692,-89.4022,WND,100.5
56857,Marble River Wind Farm,NY,44.975833,-73.929722,WND,215.3
56858,Sagebrush Power Partners,WA,47.1356,-120.6872,WND,100.7
56859,Crosswind Energy Project,IA,43.0475,-94.9228,WND,21.0
56860,Hardin Hilltop Wind LLC,IA,42.0822,-94.365,WND,14.7
56862,Bolthouse S&P and Rowen Farms Solar,CA,34.5644,-117.6933,SUN,0.3
56872,Meldahl Hydroelectric Project,KY,38.791431,-84.172982,WAT,35.0
56874,Shiloh Wind Project 2 LLC,CA,38.1711,-121.8461,WND,150.0
56875,Sacramento Soleil LLC,CA,38.44979,-121.16469,SUN,1.0
56876,Wapsipinicon Wind Project,MN,43.8006,-92.6822,WND,100.5
56877,Hall's Warehouse Solar Project,NJ,40.573708,-74.394414,SUN,1.6
56878,Hoosier Wind Project LLC,IN,40.7178,-87.2631,WND,106.0
56879,Flat Ridge Wind Energy LLC,KS,37.3764,-98.4583,WND,44.0
56883,Pennsauken Solar,NJ,39.9894,-75.04,SUN,0.2
56888,Warren County Solar,NJ,40.788957,-75.10697,SUN,0.5
56889,PPL Renewable Energy Merck Solar,NJ,40.727386,-74.3783,SUN,1.7
56893,Chester Diversion Hydroelectric Project,ID,44.018333,-111.583611,WAT,1.2
56900,Atlantic City Convention Center,NJ,39.3639,-74.4408,SUN,0.5
56901,Altona,NY,44.8216,-73.6509,WND,97.5
56902,Wethersfield,NY,42.6697,-78.2278,WND,126.0
56904,Chateaugay,NY,44.8917,-74.0299,WND,106.5
56905,Great Plains Windpark LLC,TX,36.4964,-101.3917,WND,114.0
56909,Gap Pacific Distribution Center,CA,36.781606,-119.706911,SUN,0.6
56912,Langdon Wind II LLC,ND,48.6292,-98.3164,WND,40.5
56913,Osceola Windpower II,IA,43.4303,-95.4167,WND,49.6
56915,SAS Solar Farm,NC,35.8136,-78.7503,SUN,0.5
56917,"Imperial Valley Solar, LLC",CA,32.671099,-115.587265,SUN,101.0
56919,FPL Energy Ashtabula Wind LLC,ND,47.1294,-97.8853,WND,148.5
56920,Panther Creek Wind Farm I,TX,32.100823,-101.451385,WND,142.5
56921,Panther Creek Wind Farm II,TX,31.9361,-101.2983,WND,115.5
56922,WWRF Solar Plant,CO,39.522904,-107.81341,SUN,0.5
56923,FPL Energy Crystal Lake Wind LLC,IA,43.2125,-93.8311,WND,150.0
56924,FPL Energy Story Wind LLC,IA,42.1044,-93.2722,WND,150.0
56925,FPL Energy Crystal Lake Wind II LLC,IA,43.273731,-93.800002,WND,200.0
56929,DeSoto Next Generation Solar Energy,FL,27.3232,-81.8019,SUN,25.0
56930,Space Coast Next Gen Solar Energy,FL,28.4586,-80.6811,SUN,10.0
56933,Threemile Canyon,OR,45.6758,-119.9375,WND,9.9
56934,Cassia Wind,ID,42.8444,-115.0369,WND,8.4
56935,Cassia Gulch,ID,42.8744,-115.0172,WND,18.9
56936,Brookfield Power Glen Falls Hydro,NY,43.308505,-73.636584,WAT,2.4
56938,SunEdison LV Sutton Plant Site,NC,34.2867,-77.9814,SUN,1.0
56939,Solar Blythe LLC,CA,33.5917,-114.7444,SUN,21.0
56941,Grand Ridge Wind Energy Center,IL,41.2269,-88.6836,WND,99.0
56942,Forward Wind Energy Center,WI,43.6161,-88.4969,WND,99.0
56944,CM10,NV,35.7881,-114.9933,SUN,10.0
56945,High Lonesome Mesa LLC,NM,34.466667,-105.9625,WND,100.0
56946,Buffalo Bear LLC,OK,36.7767,-99.6353,WND,18.9
56947,Elkhorn Ridge Wind LLC,NE,42.6978,-97.6189,WND,81.0
56952,Willow Creek Energy Center,OR,45.6533,-119.9914,WND,72.0
56953,High Sheldon Wind Farm,NY,42.7794,-78.4269,WND,112.5
56956,Bull Creek Wind,TX,32.929014,-101.578617,WND,180.0
56959,Ocotillo Windpower,TX,32.1217,-101.3853,WND,58.8
56960,Happy Jack Windpower Project,WY,41.139722,-104.997778,WND,29.4
56961,Notrees Windpower Hybrid,TX,31.995,-102.828333,WND,60.0
56966,RMQ 1 and 2,NC,35.9222,-77.6731,SUN,1.0
56967,Butter Creek Power LLC,OR,45.7017,-119.4222,WND,5.0
56968,Big Top LLC,OR,45.655,-119.4647,WND,1.7
56969,Four Corners Windfarm LLC,OR,45.7286,-119.4181,WND,8.0
56970,Four Mile Canyon Windfarm LLC,OR,45.6447,-119.4533,WND,10.0
56971,Oregon Trail Windfarm LLC,OR,45.7122,-119.4044,WND,9.9
56972,Pacific Canyon Windfarm LLC,OR,45.6542,-119.4869,WND,8.3
56973,Sand Ranch Windfarm LLC,OR,45.6447,-119.4767,WND,9.9
56974,Wagon Trail LLC,OR,45.6531,-119.4625,WND,3.3
56975,Ward Butte Windfarm LLC,OR,45.6967,-119.4097,WND,6.6
56979,Panther Creek Wind Farm Three,TX,31.9925,-101.1167,WND,215.5
56980,Stony Creek Wind Farm LLC,PA,40.0311,-78.8153,WND,52.5
56981,Pyron Wind Farm LLC Hybrid,TX,32.5886,-100.6728,WND,249.0
56983,Papalote Creek I LLC,TX,27.9386,-97.4586,WND,180.0
56984,Inadale Wind Farm LLC Hybrid,TX,32.4969,-100.5797,WND,197.0
56985,Smoky Hills Wind Project Phase II,KS,38.892653,-98.168876,WND,148.5
56989,Stetson Wind I,ME,45.4822,-67.9944,WND,57.0
56990,Rollins Wind Project,ME,45.34598,-68.3802,WND,60.0
56991,Stetson Wind II,ME,45.61498,-67.971,WND,25.5
56993,MF Mesa Lane LLC,PA,40.1483,-74.7772,SUN,3.0
56994,Grand Meadow,MN,43.7189,-92.705,WND,100.5
56997,Arrowrock Hydroelectric Project,ID,43.595,-115.9233,WAT,7.5
57002,Oakfield Wind Project,ME,46.058056,-68.147222,WND,148.0
57004,SunEdison Walgreens Moreno Valley,CA,33.8672,-117.23,SUN,1.0
57005,Mariani Packing Vacaville Solar,CA,38.40008,-121.96366,SUN,1.0
57006,Walgreens Woodland Distribution Center,CA,38.674894,-121.713362,SUN,1.0
57007,SunEdison Ironwood State Prison,CA,33.567268,-114.917979,SUN,1.0
57008,SunEdison Procter & Gamble Oxnard,CA,34.2089,-119.13,SUN,1.0
57009,Kohls San Bernardino Solar Facility,CA,34.094695,-117.266831,SUN,1.0
57010,SunEdison Anheuser Busch Fairfield,CA,38.232108,-122.092706,SUN,1.0
57011,Chuckawalla Valley State Prison,CA,33.565329,-114.903629,SUN,1.0
57012,SunEdison Walmart Apple Valley DC,CA,34.5975,-117.2,SUN,1.0
57031,Luverne Wind Energy Center,ND,47.3272,-97.8975,WND,49.5
57032,Ashtabula Wind Energy Center,ND,47.1244,-97.8961,WND,48.0
57033,Langdon Wind Energy Center,ND,48.6303,-98.3169,WND,40.5
57038,Bison I Wind Energy Center,ND,46.98,-101.554722,WND,36.8
57039,McFadden Ridge,WY,41.7244,-105.9906,WND,35.2
57040,High Plains,WY,41.675052,-106.011124,WND,122.1
57041,Vaca Dixon Solar Station,CA,38.4106,-121.9264,SUN,2.0
57044,Armenia Mountain Wind Farm,PA,41.7619,-76.8553,WND,100.5
57045,Rolling Thunder Wind Farm Hybrid,SD,44.477778,-99.133889,WND,25.0
57047,Nobles Wind Project,MN,43.7036,-95.7131,WND,201.0
57048,Merricourt Wind Energy Center,ND,46.1075,-99.0592,WND,150.0
57049,NaturEner Glacier Wind Energy 1,MT,48.51,-112.1097,WND,106.5
57050,NaturEner Glacier Wind Energy 2,MT,48.5333,-112.1847,WND,103.5
57069,Twin Cities Hydro LLC,MN,44.9156,-93.1994,WAT,4.5
57073,Ivanpah 2,CA,35.556111,-115.468611,SUN,133.4
57074,Ivanpah 1,CA,35.533056,-115.4525,SUN,126.0
57075,Ivanpah 3,CA,35.580833,-115.4825,SUN,133.4
57078,Steel Winds II,NY,42.8072,-78.8617,WND,15.0
57079,Milford Wind Corridor I LLC,UT,38.53569,-112.935,WND,203.5
57080,Sheffield Wind,VT,44.67598,-72.1013,WND,40.0
57081,Calpine Vineland Solar LLC,NJ,39.4636,-75.0667,SUN,2.3
57082,Kaheawa Wind Power II LLC,HI,20.79467,-156.536,WND,21.0
57083,Bull Hill Wind Project,ME,44.723056,-68.2425,WND,34.5
57085,Lake Dorothy Hydroelectric Project,AK,58.2325,-134.0533,WAT,14.3
57087,Kahuku Wind Power LLC,HI,21.68097,-157.975,WND,30.0
57090,Campbell Hill Windpower,WY,43.01455,-105.999,WND,99.0
57091,Silver Sage Windpower,WY,41.12968,-105.024,WND,42.0
57093,Casper Wind Farm,WY,42.884703,-106.221442,WND,17.0
57094,Streator Cayuga Ridge South,IL,40.9969,-88.49,WND,300.0
57095,Penascal II Wind Project LLC,TX,27.122529,-97.557372,WND,201.6
57096,Star Point Wind Project LLC,OR,45.51,-120.48,WND,98.7
57097,Rugby Wind Power Project,ND,48.4968,-99.9513,WND,149.0
57098,Dry Lake Wind LLC,AZ,34.6596,-110.2842,WND,63.0
57106,Mesalands Comm College Wind Turbine,NM,35.17,-103.74,WND,1.5
57107,Milford Wind Corridor Stage II LLC,UT,38.58523,-112.931,WND,102.0
57108,Blue Canyon Windpower V LLC,OK,34.8217,-98.4525,WND,99.0
57109,Meadow Lake Wind Farm LLC,IN,40.6275,-86.935,WND,199.7
57110,Blackstone Wind Farm LLC,IL,41.1508,-88.6233,WND,106.0
57111,Lost Lakes Wind Farm LLC,IA,43.3456,-95.3233,WND,100.0
57112,Meadow Lake Wind Farm II LLC,IN,40.6431,-87.0242,WND,102.3
57113,Blackstone Wind Farm II LLC,IL,41.1406,-88.53,WND,200.0
57115,Meadow Lake Wind Farm III LLC,IN,40.5986,-87.0194,WND,103.5
57116,Quilt Block Wind Farm LLC,WI,42.673333,-90.265277,WND,98.0
57118,Greensburg,KS,37.5499,-99.3444,WND,12.5
57120,Wilton Wind II LLC,ND,47.1333,-100.7011,WND,49.5
57121,Ashtabula Wind II LLC,ND,47.292437,-97.931692,WND,120.0
57124,Payne's Ferry,ID,42.825278,-115.010833,WND,21.0
57125,Camp Reed,ID,42.811944,-115.048889,WND,22.5
57126,Yahoo Creek,ID,42.770833,-114.988611,WND,21.0
57130,Beaver Ridge Wind,ME,44.4967,-69.35,WND,4.5
57131,Stoney Corners Wind Farm,MI,44.19,-85.2983,WND,60.0
